name,city,postalCode,address,url,longitude,latitude
Det Ny Teater,København V,1610,Gammel Kongevej 29,https://www.ticketmaster.dk/venue/det-ny-teater-kobenhavn-v-billetter/dnt/239,12.55545,55.67328
"Operaen, Holmen",København K,1438,Ekvipagemestervej 10,https://www.ticketmaster.dk/venue/operaen-holmen-kobenhavn-k-billetter/dok/203,12.60202,55.68203
Distortion,København K,1432,København,https://www.ticketmaster.dk/venue/distortion-kobenhavn-k-billetter/dis/203,12.56834,55.6761
Aveny-T,Frederiksberg C,1820,Frederiksberg Allé 102,https://www.ticketmaster.dk/venue/aveny-t-frederiksberg-c-billetter/ave/226,12.53316,55.67486
Arena Nord,Frederikshavn,9900,Harald Nielsens Plads 9,https://www.ticketmaster.dk/venue/arena-nord-frederikshavn-billetter/arn/203,10.51761,57.4419
Amager Bio,København S,2300,Øresundsvej 6,https://www.ticketmaster.dk/venue/amager-bio-kobenhavn-s-billetter/ama/256,12.60935,55.65794
"Remisen, Godsbanen",Aarhus C,8000,Skovgaardsgade 3,https://www.ticketmaster.dk/venue/remisen-godsbanen-aarhus-c-billetter/rgo/203,12.56834,55.6761
Wonderfestiwall,Allinge,3770,Slotslyngen,https://www.ticketmaster.dk/venue/wonderfestiwall-allinge-billetter/wob/203,14.75344,55.25638
Christiansgave,Thisted,7700,Tingstrupvej 2,https://www.ticketmaster.dk/venue/christiansgave-thisted-billetter/chg/203,8.68718,56.9573
Hotel Cecil,København K,1153,Niels Hemmingsens Gade 10,https://www.ticketmaster.dk/venue/hotel-cecil-kobenhavn-k-billetter/cec/203,12.57767,55.67937
FÆNGSLET,Horsens,8700,Fussingsvej 8,https://www.ticketmaster.dk/venue/fngslet-horsens-billetter/hfa/320,9.83624,55.87407
"Bygningen Vejle, Store Sal",Vejle,7100,Ved Anlæget 14b,https://www.ticketmaster.dk/venue/bygningen-vejle-store-sal-vejle-billetter/byv/203,9.53404,55.71125
Forum Black Box,Frederiksberg C,1925,Julius Thomsens Pl. 1,https://www.ticketmaster.dk/venue/forum-black-box-frederiksberg-c-billetter/fbb/284,12.55284,55.68112
ODEON,Odense C,5000,Odeons Kvarter 1,https://www.ticketmaster.dk/venue/odeon-odense-c-billetter/ode/203,10.39285,55.39828
"VEGA - Musikkens Hus, Store VEGA",København V,1674,Enghavevej 40,https://www.ticketmaster.dk/venue/vega-musikkens-hus-store-vega-kobenhavn-v-billetter/ves/297,12.54424,55.66799
"VEGA - Musikkens Hus, Lille VEGA",København V,1674,Enghavevej 40,https://www.ticketmaster.dk/venue/vega-musikkens-hus-lille-vega-kobenhavn-v-billetter/vel/297,12.54424,55.66799
Sct. Mariæ Kirke,Helsingør,3000,Sct. Anna Gade 38,https://www.ticketmaster.dk/venue/sct-mariae-kirke-helsingor-billetter/tmk/203,12.61304,56.03675
Tivolis Koncertsal,København V,1630,Vesterbrogade 3,https://www.ticketmaster.dk/venue/tivolis-koncertsal-kobenhavn-v-billetter/tko/284,12.56565,55.67465
Gram Slot - Den Holstenske Lade,Gram,6510,Slotsvej 54,https://www.ticketmaster.dk/venue/gram-slot-den-holstenske-lade-gram-billetter/gso/203,9.05976,55.29695
Roskilde Kongrescenter,Roskilde,4000,Møllehusvej 15,https://www.ticketmaster.dk/venue/roskilde-kongrescenter-roskilde-billetter/rkc/203,12.06726,55.64392
Ringsted Kongrescenter,Ringsted,4100,Nørretorv 55,https://www.ticketmaster.dk/venue/ringsted-kongrescenter-ringsted-billetter/rin/275,11.78762,55.45023
"Samsø Festival, Strandskoven",Samsø,8305,"Strandskoven 7C, Ballen",https://www.ticketmaster.dk/venue/samso-festival-strandskoven-samso-billetter/sam/203,10.63754,55.83376
Portalen,Greve,2670,Portalen 1,https://www.ticketmaster.dk/venue/portalen-greve-billetter/por/243,12.33213,55.59805
"Sceneriet, Det Ny Teater",København V,1610,Gammel Kongevej 29,https://www.ticketmaster.dk/venue/sceneriet-det-ny-teater-kobenhavn-v-billetter/sce/239,12.55545,55.67328
Scandic Falkoner,Frederiksberg,2000,Falkoner Alle 9,https://www.ticketmaster.dk/venue/scandic-falkoner-frederiksberg-billetter/fal/284,12.5335,55.67963
Harmonien,Haderslev,6100,Gåskærgade 19,https://www.ticketmaster.dk/venue/harmonien-haderslev-billetter/khn/277,9.48561,55.25238
Vendelbohus,Hjørring,9800,Nørregade 22,https://www.ticketmaster.dk/venue/vendelbohus-hjorring-billetter/vbo/203,9.95807,57.58919
Valbyparken,København SV,2450,Hammelstrupvej 98,https://www.ticketmaster.dk/venue/valbyparken-kobenhavn-sv-billetter/vap/203,12.52026,55.64535
Festivalpladsen,Vig,4560,Ravnsbjergvej 25,https://www.ticketmaster.dk/venue/festivalpladsen-vig-billetter/vig/203,11.53572,55.8533
Tønder Kulturhus,Tønder,6270,Ribelandevej 39,https://www.ticketmaster.dk/venue/schweizerhalle-tonder-kulturhus-tonder-billetter/tkh/203,8.87316,54.9437
"Templet, Lyngby",Kongens Lyngby,2800,Jernbanevej 16,https://www.ticketmaster.dk/venue/templet-lyngby-kongens-lyngby-billetter/tem/203,12.49962,55.7701
Tusindårsskoven,Odense V,5200,Falen,https://www.ticketmaster.dk/venue/tusindarsskoven-odense-v-billetter/tas/203,10.34127,55.38322
Magasinet,Odense C,5000,Farvergården 19,https://www.ticketmaster.dk/venue/magasinet-odense-c-billetter/mab/259,10.38054,55.39501
Reformert Kirke,København K,1123,Gothersgade 109,https://www.ticketmaster.dk/venue/reformert-kirke-kobenhavn-k-billetter/rfo/203,12.57586,55.683839999999996
Den Fynske Landsby,Odense S,5260,Sejerskovvej 20,https://www.ticketmaster.dk/venue/den-fynske-landsby-odense-s-billetter/dfl/259,10.38393,55.36689
Hermans - Tivoli Friheden,Aarhus C,8000,Skovbrynet 5,https://www.ticketmaster.dk/venue/hermans-tivoli-friheden-aarhus-c-billetter/tfr/281,10.19582,56.1372
Festival Site in Roskilde,Roskilde,4000,Festival Site,https://www.ticketmaster.dk/venue/festival-site-in-roskilde-roskilde-billetter/rof/307,12.08785,55.64191
HeadQuarters,Aarhus C,8000,Valdemarsgade 1,https://www.ticketmaster.dk/venue/headquarters-aarhus-c-billetter/heq/300,10.19933,56.15211
CASA Arena Horsens,Horsens,8700,Langmarksvej 59,https://www.ticketmaster.dk/venue/casa-arena-horsens-horsens-billetter/ach/284,9.85741,55.8712
Musikkens Hus,Aalborg,9000,Musikkens Plads 1,https://www.ticketmaster.dk/venue/musikkens-hus-aalborg-billetter/amu/316,9.93431,57.04793
"Det Kgl. Teater, Gamle Scene",København K,1017,Kongens Nytorv,https://www.ticketmaster.dk/venue/det-kgl-teater-gamle-scene-kobenhavn-k-billetter/dkg/193,12.58497,55.68094
Heartland på Egeskov Slot,Kværndrup,5772,Egeskov Gade 24,https://www.ticketmaster.dk/venue/heartland-pa-egeskov-slot-kvaerndrup-billetter/hfe/284,10.48833,55.17697
Royal Arena,København S,2300,Hannemanns Allé 18-20,https://www.ticketmaster.dk/venue/royal-arena-kobenhavn-s-billetter/rya/284,12.5737,55.62575
Svendborg Teater,Svendborg,5700,Teatergade 2,https://www.ticketmaster.dk/venue/svendborg-teater-svendborg-billetter/sbt/311,10.60937,55.06046
Konservatoriets Koncertsal,Frederiksberg C,1999,Julius Thomsens Gade 1,https://www.ticketmaster.dk/venue/konservatoriets-koncertsal-frederiksberg-c-billetter/mkk/281,12.55494,55.68319
"ODEON, Store Sal",Odense C,5000,Odeons Kvarter 1,https://www.ticketmaster.dk/venue/odeon-store-sal-odense-c-billetter/ode/313,10.39285,55.39828
Thisted Musikteater,Thisted,7700,Håndværker Torv 1,https://www.ticketmaster.dk/venue/thisted-musikteater-thisted-billetter/thi/203,8.69422,56.95503
Odense Congress Center,Odense SØ,5220,Ørbækvej 350,https://www.ticketmaster.dk/venue/odense-congress-center-odense-s-billetter/occ/259,10.53144,55.3316
Ledreborg Slotspark v/Lejre,Lejre,4320,Ledreborg Alle,https://www.ticketmaster.dk/venue/ledreborg-slotspark-v-lejre-lejre-billetter/led/210,11.97147,55.61
Koncertsalen i Alsion,Sønderborg,6400,Alsion 2,https://www.ticketmaster.dk/venue/koncertsalen-i-alsion-sonderborg-billetter/koa/203,9.779,54.91309
Kedelhallen,Frederiksberg,2000,Nyelandsvej 75A,https://www.ticketmaster.dk/venue/kedelhallen-frederiksberg-billetter/keh/203,12.52111,55.68448
Dalum landbrugsskole,Odense S,5260,Landbrugsvej 65,https://www.ticketmaster.dk/venue/dalum-landbrugsskole-odense-s-billetter/kdl/203,10.39812,55.36594
Herlev Medborgerhus,Herlev,2730,Herlev Gårdsvej 18,https://www.ticketmaster.dk/venue/herlev-medborgerhus-herlev-billetter/hem/203,12.43881,55.72684
Holmens Kirke,København K,1060,Holmens Kanal 21,https://www.ticketmaster.dk/venue/holmens-kirke-kobenhavn-k-billetter/hol/203,12.58386,55.67675
Falconer Salen,Frederiksberg,2000,Falkoner Alle 9,https://www.ticketmaster.dk/venue/falkoner-salen-frederiksberg-billetter/fal/154,12.53344,55.67971
"Gigantium, Aalborg",Aalborg Øst,9220,Willy Brandts Vej 31,https://www.ticketmaster.dk/venue/gigantium-aalborg-st-billetter/gig/203,9.96444,57.01882
Koncertsalen i Tivoli,København V,1630,Vesterbrogade 3,https://www.ticketmaster.dk/venue/koncertsalen-i-tivoli-kobenhavn-v-billetter/tko/271,12.56565,55.67465
Loppen,København K,1407,Bådsmandsstræde 43,https://www.ticketmaster.dk/venue/loppen-kobenhavn-k-billetter/lop/284,12.59679,55.67316
"Pumpehuset, Store Sal",København V,1554,Studiestræde 52,https://www.ticketmaster.dk/venue/pumpehuset-store-sal-kobenhavn-v-billetter/pus/284,12.56526,55.67713
Pumpehuset,København V,1554,Studiestræde 52,https://www.ticketmaster.dk/venue/pumpehuset-lille-sal-kobenhavn-v-billetter/pul/284,12.56526,55.67713
Bremen Teater,København V,1602,Nyropsgade 39-41,https://www.ticketmaster.dk/venue/bremen-teater-kobenhavn-v-billetter/brm/203,12.56114,55.67684
Parken,København Ø,2100,Øster Allé 50,https://www.ticketmaster.dk/venue/parken-kobenhavn--billetter/par/284,12.57069,55.70295
Jyske Bank Boxen,Herning,7400,Kaj Zartowsvej 7,https://www.ticketmaster.dk/venue/jyske-bank-boxen-herning-billetter/jbb/284,8.9537,56.118
Refshaleøen,København K,1432,Refshalevej 185,https://www.ticketmaster.dk/venue/refshaleoen-kobenhavn-k-billetter/ref/284,12.62219,55.69773
Fyens Væddeløbsbane,Odense SV,5250,Prins Haralds Allé 51 B,https://www.ticketmaster.dk/venue/fyens-vaeddelobsbane-odense-sv-billetter/fvb/203,10.34756,55.3743
"Sønder Hoved, Refshaleøen",København K,1432,Refshalevej 155,https://www.ticketmaster.dk/venue/sonder-hoved-refshaleoen-kobenhavn-k-billetter/soo/284,12.61172,55.69091
"Jysk Park, Norlys Loungen",Silkeborg,8600,Ansvej 4,https://www.ticketmaster.dk/venue/jysk-park-norlys-loungen-silkeborg-billetter/jpn/203,9.55733,56.17618
Nordstern Arena Horsens,Horsens,8700,Langmarksvej 59,https://www.ticketmaster.dk/venue/nordstern-arena-horsens-horsens-billetter/nsa/284,9.85735,55.87114
Eskelunden,Viby J,8260,Eskelundvej,https://www.ticketmaster.dk/venue/eskelunden-viby-j-billetter/adl/203,10.1702,56.15084
Olympen Ollerup,Vester Skerninge,5762,Svendborgvej 3,https://www.ticketmaster.dk/venue/olympen-ollerup-vester-skerninge-billetter/olo/259,10.51166,55.07096
Christianssæde Herregård,Maribo,4930,Kristianssædevej 3,https://www.ticketmaster.dk/venue/christianssaede-herregard-maribo-billetter/chi/203,11.3539,54.75798
Skave Multihus,Holstebro,7500,Viborgvej 201,https://www.ticketmaster.dk/venue/skave-multihus-holstebro-billetter/vmu/203,8.7982,56.39058
Vikingescenen,Frederikssund,3600,Kalvøvej 26,https://www.ticketmaster.dk/venue/vikingescenen-frederikssund-billetter/vsc/203,12.05956,55.83068
Royal Stage,Hillerød,3400,Milnersvej 39,https://www.ticketmaster.dk/venue/royal-stage-hillerod-billetter/rsa/266,12.30389,55.92429
Det 3. Rum,Aarhus C,8000,Jægergårdsgade 154c,https://www.ticketmaster.dk/venue/det-3-rum-aarhus-c-billetter/d3r/300,10.21011,56.14774
Pumpehuset,København,1554,Studiestræde 52,NA,12.5652078,55.6771316
DR Byen,København S,2300,Emil Holms Kanal 20,https://www.ticketmaster.dk/venue/dr-byen-kobenhavn-s-billetter/drr/203,12.59029,55.65829
Dyrehaven,Klampenborg,2930,Parkeringspladsen bag Bakken,https://www.ticketmaster.dk/venue/dyrehaven-klampenborg-billetter/drh/203,12.5895,55.77547
Den Runde P Plads,Gilleleje,3250,"Vodbindervej, Gilleleje Havn",https://www.ticketmaster.dk/venue/den-runde-p-plads-gilleleje-billetter/drp/203,12.30126,56.12283
"Dronninggårdskolen, festsalen",Holte,2840,Rønnebærvej 33,https://www.ticketmaster.dk/venue/dronninggardskolen-holte-billetter/drf/203,12.46577,55.81489
"Koncerthuset, Koncertsalen",København C,999,Emil Holms Kanal 20,https://www.ticketmaster.dk/venue/koncerthuset-koncertsalen-kobenhavn-c-billetter/drk/154,12.59029,55.65829
Det Nye Teater,København V,1610,Gammel Kongevej 29,https://www.ticketmaster.dk/venue/det-nye-teater-kobenhavn-v-billetter/dnk/239,12.55545,55.67328
"Teaterkælderen, Det Ny Teater",København V,1610,Gammel Kongevej 29,https://www.ticketmaster.dk/venue/teaterkaelderen-det-ny-teater-kobenhavn-v-billetter/dntk/239,12.55545,55.67328
Merchandise (Venue Code),København K,1304,Adelgade 10,https://www.ticketmaster.dk/venue/merchandise-venue-code--kobenhavn-k-billetter/dkt/207,12.58283,55.68267
Stærekassen,København K,1055,August Bournonvilles Passage 5,https://www.ticketmaster.dk/venue/staerekassen-kobenhavn-k-billetter/dks/207,12.58704,55.67924
DR P4 Københavns Radio,København S,2300,Kaj Munks Vej 9,https://www.ticketmaster.dk/venue/dr-p4-kobenhavns-radio-kobenhavn-s-billetter/dkr/203,12.58967,55.65876
Jazzhus Dexter + Magasinet,Odense C,5000,Vindegade 65 + Brabdts Passage 26,https://www.ticketmaster.dk/venue/jazzhus-dexter--magasinet-odense-c-billetter/dma/203,10.37943,55.39742
Lille Carl -elefant på Carlsberg,København V,1779,Pasteursvej 20,https://www.ticketmaster.dk/venue/lille-carl-elefant-pa-carlsberg-kobenhavn-v-billetter/dlc/203,12.53659,55.66509
Generalprøve,København K,NA,Det Kongelige Teater,https://www.ticketmaster.dk/venue/generalprove-kobenhavn-k-billetter/dkz/207,12.56834,55.6761
"Dansescenen, Lille Carl",København V,1778,Pasteursvej 20,https://www.ticketmaster.dk/venue/dansescenen-lille-carl-kobenhavn-v-billetter/dlc/233,12.53659,55.66509
Takkelloftet,København K,1438,Ekvipagemestervej 10,https://www.ticketmaster.dk/venue/takkelloftet-kobenhavn-k-billetter/dol/210,12.60202,55.68203
Dortes Cafe,Knebel,8420,Pakhusvej 1,https://www.ticketmaster.dk/venue/dortes-cafe-knebel-billetter/dor/203,10.46449,56.19825
Århus Domkirke,Aarhus C,8000,Domkirkepladsen 2,https://www.ticketmaster.dk/venue/arhus-domkirke-aarhus-c-billetter/dom/241,10.21062,56.15687
"Alle Studier i DR,Radiohuset",Frederiksberg C,1999,Julius Thomsensgade 1,https://www.ticketmaster.dk/venue/alle-studier-i-drradiohuset-frederiksberg-c-billetter/dra/210,12.55494,55.68319
Programsalg,København K,1055,Tordenskjoldsgade 1,https://www.ticketmaster.dk/venue/programsalg-kobenhavn-k-billetter/dkp/207,12.58724,55.67893
"Turbinehallerne, Lille Scene",København K,1055,"Christiansborg, Kongeporten",https://www.ticketmaster.dk/venue/rundvisning-christiansborg-kobenhavn-k-billetter/dko/207,12.56431,55.65165
Danielkirken,København N,2200,Peblinge Dossering 6,https://www.ticketmaster.dk/venue/danielkirken-kobenhavn-n-billetter/dki/203,12.56171,55.68674
Det Kongelige Bibliotek,København K,1055,"Det Kongelige Bibliotek, Dronningesalen",https://www.ticketmaster.dk/venue/det-kongelige-bibliotek-kobenhavn-k-billetter/dkk/217,12.5874,55.67837
DKD,København K,NA,NA,https://www.ticketmaster.dk/venue/dkd-kobenhavn-k-billetter/dkd/210,12.58196,55.67653
Den ny Dansebaren,Aalborg,9000,Jomfru Ane gade 3,https://www.ticketmaster.dk/venue/den-ny-dansebaren-aalborg-billetter/dnd/203,9.91859,57.04956
Det Musiske Hus,Frederikshavn,9900,Rådhusalle 98,https://www.ticketmaster.dk/venue/det-musiske-hus-frederikshavn-billetter/dmh/190,10.5331,57.44052
Det Jyske Musikkonservatorium,Aarhus C,8000,Skovgårdsgade 2 C,https://www.ticketmaster.dk/venue/det-jyske-musikkonservatorium-aarhus-c-billetter/dmu/203,10.0973,56.06756
Diamantboghandlen/Sorte Diamant,København K,1219,Søren Kierkegaards Plads,https://www.ticketmaster.dk/venue/diamantboghandlen-sorte-diamant-kobenhavn-k-billetter/dmb/203,12.58193,55.67329
Det Musiske Hus Maskinhallen,Frederikshavn,9900,Skolegade 8,https://www.ticketmaster.dk/venue/maskinhallen-frederikshavn-billetter/dmk/190,10.51771,57.33325
"Prøvesal A, Gamle Scene",København K,1055,"Mødested: Vognporten, Aug. Bourn. Passag",https://www.ticketmaster.dk/venue/provesal-a-gamle-scene-kobenhavn-k-billetter/dka/207,12.5874,55.67837
Dansk Jødisk Museum,København K,NA,Proviantpassagen 6,https://www.ticketmaster.dk/venue/dansk-jodisk-museum-kobenhavn-k-billetter/djm/176,12.58233,55.67435
Bussen fra DittoBus,Frederiksberg,2000,Mødested: Frederiksberg Rådhusplads,https://www.ticketmaster.dk/venue/bussen-fra-dittobus-frederiksberg-billetter/dit/203,12.51794,55.68185
"Diverse, Jylland",Aarhus C,8000,"Aarhus, Herning, Holstebro",https://www.ticketmaster.dk/venue/diverse-jylland-aarhus-c-billetter/div1/203,10.22722,56.16528
Copenhagen Ice Theatre,København Ø,2100,P.H. Lings Allé 6,https://www.ticketmaster.dk/venue/copenhagen-ice-theatre-kobenhavn--billetter/cit/203,12.48088,55.65793
Cirkuspladsen Kalvøen,Frederikssund,3600,Kalvøvej,https://www.ticketmaster.dk/venue/cirkuspladsen-kalvoen-frederikssund-billetter/cik/203,12.05951,55.83194
Copenhagen Irish Festival,København V,1699,Staldgade 29,https://www.ticketmaster.dk/venue/kobenhavns-kommunes-musikskole-kobenhavn-v-billetter/cif/203,12.56295,55.66861
Cirkuspladsen,Nykøbing Sj,4500,"Havnegade, Nykøbing Havn",https://www.ticketmaster.dk/venue/cirkuspladsen-nykobing-sj-billetter/cip/203,11.67205,55.92073
Compass Congress Center,Rødekro,6230,Brunde Vest 17,https://www.ticketmaster.dk/venue/compass-congress-center-rodekro-billetter/ccc/203,9.34695,55.07241
Carl-Henning & Else Alfelts Muse,Herning,7400,Birk Centerpark 1,https://www.ticketmaster.dk/venue/carl-henning--else-alfelts-muse-herning-billetter/cem/203,9.02228,56.13335
"Christiansborg Slot, Riddersalen",København K,1218,Prins Jørgens Gård 1,https://www.ticketmaster.dk/venue/christiansborg-slot-riddersalen-kobenhavn-k-billetter/cbs/203,12.57994,55.6768
Club Danmark Hallen,København SV,2450,Julius Andersensvej 6,https://www.ticketmaster.dk/venue/club-danmark-hallen-kobenhavn-sv-billetter/cdh/203,12.51028,55.64777
Carlton,København V,1700,Halmtorvet 14,https://www.ticketmaster.dk/venue/carlton-kobenhavn-v-billetter/car/203,12.56077,55.6707
Cafékino,København S,2300,Øresundsvej 6,https://www.ticketmaster.dk/venue/cafekino-kobenhavn-s-billetter/cak/203,12.60935,55.65794
Caesars Palace / På Rådhuspl.,Odder,8300,Caesars Palace / På Rådhuspladsen,https://www.ticketmaster.dk/venue/caesars-palace-pa-radhuspl-odder-billetter/cap/203,10.14996,55.97572
SALT bar og restaurant,København K,1253,Toldbodgade 24-28,https://www.ticketmaster.dk/venue/salt-bar-og-restaurant-kobenhavn-k-billetter/cah/203,12.59339,55.68153
"DBU's Fodboldcamps, Sjælland",Diverse byer,NA,"DBU's Fodboldcamps, Sjælland",https://www.ticketmaster.dk/venue/dbus-fodboldcamps-sjaelland-diverse-byer-billetter/cam/244,12.41402,55.65599
Carlsberg Besøgscenter,Valby,2500,Gl. Carlsberg Vej 11,https://www.ticketmaster.dk/venue/carlsberg-besogscenter-valby-billetter/cbc/203,12.52845,55.66697
Castenskiold,Aarhus C,8000,Åboulevarden 32,https://www.ticketmaster.dk/venue/castenskiold-aarhus-c-billetter/cas/203,10.21013,56.15536
Café Zusammen,Frederiksberg C,1879,H. C. Ørstedsvej 47,https://www.ticketmaster.dk/venue/cafe-zusammen-frederiksberg-c-billetter/caz/203,12.54949,55.68213
Camp X Gavekort,Frederiksberg,NA,Camp X,https://www.ticketmaster.dk/venue/camp-x-gavekort-frederiksberg-billetter/cax/226,12.52418,55.67605
Charlottehaven,København Ø,2100,Hjørringgade 12 C,https://www.ticketmaster.dk/venue/charlottehaven-kobenhavn--billetter/chh/203,12.5885,55.70544
Copenhagen Golf Center,Vallensbæk,2625,Golfsvinget 16 - 20,https://www.ticketmaster.dk/venue/copenhagen-golf-center-vallensbaek-billetter/cgc/203,12.38329,55.63142
Christiansborg,København K,1218,Prins Jørgen Gård,https://www.ticketmaster.dk/venue/christiansborg-kobenhavn-k-billetter/chb/203,12.57945,55.67681
Club Faust,København K,1204,Magstræde 12-14,https://www.ticketmaster.dk/venue/club-faust-kobenhavn-k-billetter/cfa/203,12.57539,55.67641
Chaluphuset,Fredensborg,3480,Skipper Allé 6,https://www.ticketmaster.dk/venue/chaluphuset-fredensborg-billetter/cha/203,12.34544,55.96025
Cirkusteltet på Bakken,Klampenborg,2930,Dyrehavsbakken,https://www.ticketmaster.dk/venue/cirkusteltet-pa-bakken-klampenborg-billetter/cib/203,12.5751,55.77588
"Christianskirken, Lyngby",Kongens Lyngby,2800,Christians X's Allé 120,https://www.ticketmaster.dk/venue/christianskirken-lyngby-kongens-lyngby-billetter/chl/203,12.49769,55.76493
Clausholm Slot,Hadsten,8370,"Clausholmvej 308, Voldum",https://www.ticketmaster.dk/venue/clausholm-slot-hadsten-billetter/chs/203,10.16998,56.38465
"Christians Kirke, Chr. Havn",København K,1401,Strandgade 1,https://www.ticketmaster.dk/venue/christians-kirke-kobenhavn-k-billetter/chk/203,12.58744,55.67268
Christiansborg Ridehus,København K,1218,Christiansborg Ridebane 11,https://www.ticketmaster.dk/venue/christiansborg-ridehus-kobenhavn-k-billetter/chr/203,12.577209999999999,55.67575
Cafe Hack,Aarhus C,8000,Teatergaden 1,https://www.ticketmaster.dk/venue/cafe-hack-aarhus-c-billetter/caf/203,10.05126,56.10692
"DBU's Fodboldcamps, Jylland",Diverse byer,NA,"DBU's Fodboldcamps, Jylland",https://www.ticketmaster.dk/venue/dbus-fodboldcamps-jylland-diverse-byer-billetter/ca1/244,12.41402,55.65599
"Aarhus Teater, Cabaretscenen",Aarhus C,8000,Aarhus Teater,https://www.ticketmaster.dk/venue/aarhus-teater-cabaretscenen-aarhus-c-billetter/cab/225,9.556,56.102
Markedspladsen/Ringvejen,Rømø,6792,Lakolk Butikscenter 14,https://www.ticketmaster.dk/venue/party-on-romo-club-pure-passion-romo-billetter/c62/203,8.49693,55.14661
"DBU's Fodboldcamps, Fyn",Diverse byer,NA,"DBU's Fodboldcamps, Fyn",https://www.ticketmaster.dk/venue/dbus-fodboldcamps-fyn-diverse-byer-billetter/ca2/244,12.41402,55.65599
Rom Flyveplads/Ringkøbingvej,Lemvig,NA,Rom Flyveplads/Ringkøbingvej,https://www.ticketmaster.dk/venue/rom-flyveplads-ringkobingvej-lemvig-billetter/c61/203,8.30251,56.50153
Ved Havnen,Vestervig,7770,Ved Havnen,https://www.ticketmaster.dk/venue/ved-havnen-vestervig-billetter/c58/203,8.31772,56.76257
Ved Rådhuset/Ærøvej,Thyborøn,NA,Ved Rådhuset/Ærøvej,https://www.ticketmaster.dk/venue/ved-radhuset-rovej-thyboron-billetter/c60/203,8.21565,56.69522
Sportspladsen i Nr. Vorupør,Thisted,NA,Sportspladsen i Nr. Vorupør,https://www.ticketmaster.dk/venue/sportspladsen-i-nr-vorupor-thisted-billetter/c57/203,8.38213,56.95322
Hvidbjerg,Brøndby,2605,Nyggards Plads,https://www.ticketmaster.dk/venue/hvidbjerg-brondby-billetter/c59/203,12.41489,55.64731
Carlsberg - Gårdcafeen,Valby,2500,Gamle Carlsberg vej 11,https://www.ticketmaster.dk/venue/carlsberg-gardcafeen-valby-billetter/cbm/203,12.52988,55.66481
Ny Carlsberg Bryghus,København V,1799,Ny Carlsbergvej v. Elefantporten,https://www.ticketmaster.dk/venue/ny-carlsberg-bryghus-kobenhavn-v-billetter/cbg/203,12.54414,55.66589
Café Slotsbio,Hillerød,3400,Frederiksværksgade 11 C,https://www.ticketmaster.dk/venue/cafe-slotsbio-hillerod-billetter/cbi/192,12.27875,55.93916
Charlottenborg Festsal,København K,1022,Kgs. Nytorv 1,https://www.ticketmaster.dk/venue/charlottenborg-festsal-kobenhavn-k-billetter/cbf/203,12.57328,55.67767
Café Bernhard,Præstø,4720,Adelgade 41,https://www.ticketmaster.dk/venue/cafe-bernhard-praesto-billetter/cbh/203,12.04059,55.12165
Ved Klitmøller Camping,Thisted,7700,Ved Klitmøller Camping,https://www.ticketmaster.dk/venue/ved-klitmoller-camping-thisted-billetter/c56/203,8.70349,56.95917
Festpladsen,Nibe,NA,Festpladsen,https://www.ticketmaster.dk/venue/festpladsen-nibe-billetter/c53/203,9.65264,56.98954
Sportspladsen,Frøstrup,NA,Sportspladsen,https://www.ticketmaster.dk/venue/sportspladsen-frostrup-billetter/c55/203,9.38887,56.4595
Dyrskuepladsen,Løgstør,NA,Dyrskuepladsen,https://www.ticketmaster.dk/venue/dyrskuepladsen-logstor-billetter/c52/203,9.23731,56.94221
Dyrskuepladsen,Fjerritslev,NA,Dyrskuepladsen,https://www.ticketmaster.dk/venue/dyrskuepladsen-fjerritslev-billetter/c54/203,9.24058,57.08624
Biografen Øst for Paradis,Aarhus C,8000,"Paradisgade 7, 1",https://www.ticketmaster.dk/venue/biografen-st-for-paradis-aarhus-c-billetter/bop/203,10.05126,56.10692
Borups Højskole,København K,1220,Frederiksholms Kanal 24,https://www.ticketmaster.dk/venue/borups-hojskole-kobenhavn-k-billetter/boh/203,12.57751,55.67379
Boldhus Teatret,København K,1066,Admiralgade 26,https://www.ticketmaster.dk/venue/boldhus-teatret-kobenhavn-k-billetter/bol/203,12.58208,55.6776
Borreby Teater,Skælskør,4230,Borrebyvej 41,https://www.ticketmaster.dk/venue/borreby-teater-skaelskor-billetter/bob/203,11.2907,55.23334
"Boldklubben Skjold, Kontoret",København Ø,2100,P.H.Lings Alle 10,https://www.ticketmaster.dk/venue/boldklubben-skjold-kontoret-kobenhavn--billetter/bks/203,12.49183,55.68292
Borgmester Jensens Alle v/Parken,København Ø,2100,Borgmester Jensens Alle v/Parken,https://www.ticketmaster.dk/venue/borgmester-jensens-alle-v-parken-kobenhavn--billetter/bja/203,12.56679,55.70516
Brændkjærkirken,Kolding,6000,Agtrupvej 114,https://www.ticketmaster.dk/venue/braendkjaerkirken-kolding-billetter/bki/203,9.48558,55.47913
Bisserup Forsamlingshus,Rude,4243,Skafterupvej 184,https://www.ticketmaster.dk/venue/bisserup-forsamlingshus-rude-billetter/bis/203,11.49679,55.20116
Bjerget,København S,2300,Ørestads Boulevard 55,https://www.ticketmaster.dk/venue/bjerget-kobenhavn-s-billetter/bjg/203,12.58236,55.63487
Brædstrup Hallen,Brædstrup,8740,Skovvejen,https://www.ticketmaster.dk/venue/braedstrup-hallen-braedstrup-billetter/bhn/203,9.61459,55.9651
Borupgårdteatret,Snekkersten,3070,Smakkevej 2,https://www.ticketmaster.dk/venue/borupgardteatret-snekkersten-billetter/bgt/203,12.58454,56.0127
Bakkehusmuseet,Frederiksberg C,1801,Rahbeks Allé 23,https://www.ticketmaster.dk/venue/bakkehusmuseet-frederiksberg-c-billetter/bhm/203,12.53208,55.66845
Koncertkirken,København N,2200,Blågårds Plads 6A,https://www.ticketmaster.dk/venue/koncertkirken-kobenhavn-n-billetter/bgk/203,12.55767,55.68683
"Borup Hallen, Multihallen",Borup,4140,Hovedgade 65,https://www.ticketmaster.dk/venue/borup-hallen-borup-billetter/bha/203,11.97636,55.50313
Birkerød Sport & Event Arena,Birkerød,3460,Bistrupvej 1,https://www.ticketmaster.dk/venue/birkerod-sport--event-arena-birkerod-billetter/bic/174,12.43484,55.83948
Bakkens Hvile,Klampenborg,2930,Dyrehavsbakken 38,https://www.ticketmaster.dk/venue/bakkens-hvile-klampenborg-billetter/bhv/171,12.57489,55.7751
Bispebjerg Bakke,København NV,2400,Bispebjerg Bakke 18-26,https://www.ticketmaster.dk/venue/bispebjerg-bakke-kobenhavn-nv-billetter/bib/203,12.54555,55.71326
Byggeriets Hus,Frederiksberg,2000,Godthåbsvej 33,https://www.ticketmaster.dk/venue/byggeriets-hus-frederiksberg-billetter/bhu/203,12.53344,55.6861
Ballerup Idrætsanlæg,Ballerup,2750,Marbækvej 3-13,https://www.ticketmaster.dk/venue/ballerup-idraetsanlaeg-ballerup-billetter/bia/203,12.37307,55.7147
Boeslunde Mindepark,Boeslunde,4242,Sønderupvej,https://www.ticketmaster.dk/venue/boeslunde-mindepark-boeslunde-billetter/bmp/203,11.27609,55.29591
Blue Bell,Varde,6800,Torvet,https://www.ticketmaster.dk/venue/blue-bell-varde-billetter/blu/203,8.75263,55.70508
"Bryghuset Møn, Luffes Gård",Stege,4780,Store Gade 18,https://www.ticketmaster.dk/venue/bryghuset-mon-luffes-gard-stege-billetter/bmo/203,12.28433,54.98332
Blokhuset,Blokhus,9492,Torvet 3,https://www.ticketmaster.dk/venue/blokhuset-blokhus-billetter/blh/203,9.58474,57.25165
Brødremenighedens Kirke,Christiansfeld,6070,Lindegade 15,https://www.ticketmaster.dk/venue/brodremenighedens-kirke-christiansfeld-billetter/bmk/203,9.48097,55.35551
Københavns BMX bane,København SV,2450,Ved Slusen 2,https://www.ticketmaster.dk/venue/kobenhavns-bmx-bane-kobenhavn-sv-billetter/bmx/203,12.56308,55.64214
Brovst Multiarena,Brovst,9460,Dameng 2,https://www.ticketmaster.dk/venue/brovst-multiarena-brovst-billetter/bmu/203,9.52216,57.09645
Bygning 55,København V,1699,Staldgade 16,https://www.ticketmaster.dk/venue/bygning-55-kobenhavn-v-billetter/bgg/203,12.56201,55.6685
Brusgårdsbanen,Randers,8900,Clausholmsvej 180,https://www.ticketmaster.dk/venue/brusgardsbanen-randers-billetter/bgb/203,10.09267,56.42813
"Bådfarten, frederiksdal",Birkerød,NA,"Bådfarten, Frederiksdal",https://www.ticketmaster.dk/venue/badfarten-frederiksdal-birkerod-billetter/bfr/174,12.42211,55.8443
Bakkepladsen,Gilleleje,3250,Bøgebakken 19,https://www.ticketmaster.dk/venue/bakkepladsen-gilleleje-billetter/bfp/203,12.30109,56.12509
Brasserie Between,Holstebro,7500,Nørregade 26,https://www.ticketmaster.dk/venue/brasserie-between-holstebro-billetter/bet/232,8.61761,56.36
Bedsted Skole,Bedsted Thy,7755,Skolegade 1,https://www.ticketmaster.dk/venue/bedsted-skole-bedsted-thy-billetter/bes/203,8.40353,56.81201
Brejning Forsamlingshus,Børkop,7080,"J. L. Varmingsvej 1, Brejning",https://www.ticketmaster.dk/venue/brejning-forsamlingshus-borkop-billetter/bfh/203,9.67691,55.66951
Bindslev,Bindslev,9881,Holtvej 2,https://www.ticketmaster.dk/venue/bindslev-bindslev-billetter/bin/203,10.21092,57.5171
Brøndby IF,Brøndby,2605,Brøndby Stadion 28D,https://www.ticketmaster.dk/venue/brondby-if-brondby-billetter/bif/203,12.41675,55.64539
BILLETnet A/S,Frederiksberg C,1850,Gammel Kongevej 60,https://www.ticketmaster.dk/venue/billetnet-frederiksberg-c-billetter/billetnet/203,12.51535,55.69983
Birkerød Sport og Event Arena,Birkerød,3460,Bistrupvej 1,https://www.ticketmaster.dk/venue/birkerod-sport-og-event-arena-birkerod-billetter/bic/203,12.43484,55.83948
Bikuben/Tietgenkollegiet,København S,2300,Njalsgade/Amagerfælledvej,https://www.ticketmaster.dk/venue/bikuben-tietgenkollegiet-kobenhavn-s-billetter/bik/203,12.59263,55.65852
Bethesda,København K,1362,Rømersgade 17,https://www.ticketmaster.dk/venue/bethesda-kobenhavn-k-billetter/ber/203,12.56879,55.68418
Bellevue Teatret,Klampenborg,2930,Strandvejen 451,https://www.ticketmaster.dk/venue/bellevue-teatret-klampenborg-billetter/bel/203,12.57583,55.72755
Bernstorffs parken,Gentofte,2820,Jægersborg alle 93,https://www.ticketmaster.dk/venue/bernstorffs-parken-gentofte-billetter/bep/203,12.55259,55.75847
Dr. Margretehallen,Fredericia,7000,Venstre Ringvej 101,https://www.ticketmaster.dk/venue/dr-margretehallen-fredericia-billetter/c01/203,9.74952,55.56893
Byparken Korsør,Korsør,4220,Kongebroen,https://www.ticketmaster.dk/venue/byparken-korsor-korsor-billetter/byk/203,11.138,55.33926
Byparken Ørestad City,København S,2300,Ørestads Boulevard,https://www.ticketmaster.dk/venue/byparken-restad-city-kobenhavn-s-billetter/byp/203,12.57963,55.63046
"Bygningen, Lille sal",Vejle,7100,Ved Anlæget 14 B,https://www.ticketmaster.dk/venue/bygningen-lille-sal-vejle-billetter/byg/203,9.53394,55.71128
Bylderup Hallen,Bylderup-Bov,6372,Slogsherredsvej 41,https://www.ticketmaster.dk/venue/bylderup-hallen-bylderup-bov-billetter/byl/203,9.10452,54.94438
Bondes Spisegaard,Løsning,8723,Ny skolegade 11,https://www.ticketmaster.dk/venue/bondes-spisegaard-losning-billetter/bsg/203,9.69776,55.80271
Strike Bowlingcenter/Ballroom,Kastrup,2770,Astridsvej 70,https://www.ticketmaster.dk/venue/strike-bowlingcenter-ballroom-kastrup-billetter/bsb/203,12.60483,55.62785
Savværksgrunden Borup,Borup,4140,Savværksgrunden,https://www.ticketmaster.dk/venue/savvaerksgrunden-borup-borup-billetter/brp/203,11.95147,55.49695
Brøndby-Hallen,Brøndby,2605,Brøndby Stadion 10,https://www.ticketmaster.dk/venue/brondby-hallen-brondby-billetter/brh/230,12.41771,55.64589
Brorsons Kirke,København N,2200,Rantzausgade 49,https://www.ticketmaster.dk/venue/brorsons-kirke-kobenhavn-n-billetter/bro/203,12.54624,55.68756
Bramdrupdam Kro,Kolding,6000,"Vejlevej 332, Bramdrupdam",https://www.ticketmaster.dk/venue/bramdrupdam-kro-kolding-billetter/brk/203,9.46302,55.5234
Basement,København V,1674,Lyrskovsgade 4,https://www.ticketmaster.dk/venue/basement-kobenhavn-v-billetter/bsm/203,12.54371,55.66782
Bådteatret,København K,1051,Nyhavn 16 Z,https://www.ticketmaster.dk/venue/badteatret-kobenhavn-k-billetter/bte/203,12.5901,55.67963
Brøndby Strand Kirke,Brøndby Strand,2660,Brøndby Strand Centrum 90,https://www.ticketmaster.dk/venue/brondby-strand-kirke-brondby-strand-billetter/bsk/203,12.4191,55.62272
BST,København V,1610,NA,https://www.ticketmaster.dk/venue/bst-kobenhavn-v-billetter/bst/203,12.55316,55.67256
Bagsværd Sø/Rostadion,Bagsværd,2880,Skovalleen 40,https://www.ticketmaster.dk/venue/bagsvaerd-so-rostadion-bagsvaerd-billetter/bvr/203,12.44456,55.77175
Balle Valgmenighedskirke,Bredsten,7182,Ballevej 41,https://www.ticketmaster.dk/venue/balle-valgmenighedskirke-bredsten-billetter/bvk/203,9.35814,55.73152
Bethaniakirken,Aalborg,9000,Dag Hammerskjölds Gade 2,https://www.ticketmaster.dk/venue/bethaniakirken-aalborg-billetter/btk/203,9.92409,57.04097
Budolfi Kirke (Aalborg Domkirke),Aalborg,9000,Algade 40,https://www.ticketmaster.dk/venue/budolfi-kirke-aalborg-domkirke--aalborg-billetter/bud/247,9.91954,57.04774
Brønderslev Gymnasium,Brønderslev,9700,Islands Allé 20,https://www.ticketmaster.dk/venue/bronderslev-gymnasium-bronderslev-billetter/brg/203,9.94383,57.27852
Bredagerskolens Hal,Jelling,7300,Bredager 26,https://www.ticketmaster.dk/venue/bredagerskolens-hal-jelling-billetter/bre/203,9.42373,55.75307
Bernstorffsparken,Charlottenlund,2920,Bernstorffsvej 199,https://www.ticketmaster.dk/venue/bernstorffsparken-charlottenlund-billetter/bpa/203,12.55662,55.75544
Brasseri Mühlhausen,København V,1553,H.C.Andersens Boulevard 8,https://www.ticketmaster.dk/venue/brasseri-muhlhausen-kobenhavn-v-billetter/bra/203,12.56602,55.67706
"Boxen, Folketeatret",København K,1165,Nørregade 39,https://www.ticketmaster.dk/venue/bornescenen-folketeatretdk-kobenhavn-k-billetter/box/248,12.571,55.68144
Ford på Humlebakken,Aalborg Øst,9220,Skjernvej 4A,https://www.ticketmaster.dk/venue/ford-pa-humlebakken-aalborg-st-billetter/bph/203,9.97512,57.02936
Kostalden i Brumleby,København Ø,2100,Brumleby,https://www.ticketmaster.dk/venue/kostalden-i-brumleby-kobenhavn--billetter/bru/203,12.57525,55.70195
Bryggen,København S,2300,Amagerfælledvej 40,https://www.ticketmaster.dk/venue/bryggen-kobenhavn-s-billetter/brygg/203,12.59406,55.66414
Bramstrup,Årslev,5792,"Bramstrup 1, Nr Lyndelse",https://www.ticketmaster.dk/venue/bramstrup-arslev-billetter/brt/203,10.47895,55.3066
Bowler INN,Tønder,6270,Ribelandevej 56,https://www.ticketmaster.dk/venue/bowler-inn-tonder-billetter/bow/203,8.87147,54.96683
Børsen,København K,1217,"Slotsholmsgade 1,",https://www.ticketmaster.dk/venue/borsen-kobenhavn-k-billetter/bor/203,12.56431,55.65165
Borups Teatersal,København K,1220,Frederiksholms Kanal 24,https://www.ticketmaster.dk/venue/borups-teatersal-kobenhavn-k-billetter/bot/203,12.57751,55.67379
Dansk Arkitektur Center,København K,1401,Strandgade 27 B,https://www.ticketmaster.dk/venue/dansk-arkitektur-center-kobenhavn-k-billetter/dac/203,12.59113,55.67576
Carlsberg,København V,1788,Ny Carlsberg vej 100,https://www.ticketmaster.dk/venue/carlsberg-kobenhavn-v-billetter/d16/203,12.5294,55.66736
"Dansescene, Brobjergskole",Aarhus C,8000,Valdemarsgade 1,https://www.ticketmaster.dk/venue/dansescene-brobjergskole-aarhus-c-billetter/dab/241,10.19937,56.15208
TV 2,Odense C,5100,Rugaardsvej 25,https://www.ticketmaster.dk/venue/tv-2-odense-c-billetter/d15/203,10.37173,55.39921
V&S Distillers,Aalborg,9000,C.A. Olesens Gade 1,https://www.ticketmaster.dk/venue/vs-distillers-aalborg-billetter/d17/203,9.91092,57.05402
Club Retro,Odense C,5000,Overgade 45,https://www.ticketmaster.dk/venue/club-retro-odense-c-billetter/cuh/203,10.39364,55.3977
Copenhagen Skatepark,København SV,2450,Enghavevej 80,https://www.ticketmaster.dk/venue/copenhagen-skatepark-kobenhavn-sv-billetter/csp/203,12.54091,55.66203
Cuben,Christiansfeld,6070,Østprøven 1,https://www.ticketmaster.dk/venue/cuben-christiansfeld-billetter/cue/203,9.499,55.36479
Culture Box,København K,1306,Kronprinsessegade 54A,https://www.ticketmaster.dk/venue/culture-box-kobenhavn-k-billetter/cub/203,12.58405,55.68639
Copenhagen Island,København V,1560,Kalvebod Brygge 53,https://www.ticketmaster.dk/venue/copenhagen-island-kobenhavn-v-billetter/coi/203,12.5632,55.66334
Carl Nielsen Salen,Odense C,5000,Claus Bergs Gade 9,https://www.ticketmaster.dk/venue/carl-nielsen-salen-odense-c-billetter/cns/203,10.39189,55.39942
Comedievognens Broscene,København N,2200,Griffenfeldtsgade 7A,https://www.ticketmaster.dk/venue/comedievognens-broscene-kobenhavn-n-billetter/cob/203,12.55522,55.68884
Club Renomé,København V,1620,Vesterbrogade 2E,https://www.ticketmaster.dk/venue/club-renome-kobenhavn-v-billetter/cre/203,12.56608,55.67548
Containerne på Halmtorvet,København V,1700,Halmtorvet ud for nr. 20 (Station 1),https://www.ticketmaster.dk/venue/containerne-pa-halmtorvet-kobenhavn-v-billetter/con/188,12.55999,55.67043
Cirkuspladsen i Faaborg,Faaborg,5600,Johan Rantzausvej,https://www.ticketmaster.dk/venue/cirkuspladsen-i-faaborg-faaborg-billetter/cpf/203,10.23385,55.10808
Comwell Kolding,Kolding,6000,Skovbrynet 1,https://www.ticketmaster.dk/venue/comwell-kolding-kolding-billetter/com/203,9.48382,55.49781
Copenhagen St. Patrick's Day Par,København K,1169,Co/ Store Kannikestræde 19,https://www.ticketmaster.dk/venue/copenhagen-st-patricks-day-par-kobenhavn-k-billetter/cop/203,12.57398,55.68
"Fælleshuset, Peter Holmsvej",København SV,2450,Fælleshuset for enden af Peter Holmsvej,https://www.ticketmaster.dk/venue/faelleshuset-peter-holmsvej-kobenhavn-sv-billetter/cx2/203,12.5471,55.6503
Culinary Institute of Denmark,Aalborg,9000,Rørdalsvej 8,https://www.ticketmaster.dk/venue/culinary-institute-of-denmark-aalborg-billetter/cul/203,9.96316,57.05249
Mødested: Thomas Koppels Alle,København SV,2450,Thomas Koppels Alle,https://www.ticketmaster.dk/venue/modested-thomas-koppels-alle-kobenhavn-sv-billetter/cx1/203,12.53149,55.64443
CVU Storkøbenhavn,Skovlunde,2740,Ejbyvej 35,https://www.ticketmaster.dk/venue/cvu-storkobenhavn-skovlunde-billetter/cvu/203,12.39785,55.71915
Royal Copenhagen,København K,1160,"Amagertorv 6, 2",https://www.ticketmaster.dk/venue/royal-copenhagen-kobenhavn-k-billetter/d14/203,12.57903,55.67895
Mødested: Esbjerg Station,Esbjerg,6700,"DONG Energy, Esbjergværket",https://www.ticketmaster.dk/venue/modested-esbjerg-station-esbjerg-billetter/d11/203,8.44461,55.48348
Det Danske Filmstudie,Kongens Lyngby,2800,Blomstervænget 52,https://www.ticketmaster.dk/venue/det-danske-filmstudie-kongens-lyngby-billetter/d13/203,12.50621,55.76224
Klargøringscenter hundige,Ishøj,2635,Vejlebrovej 15,https://www.ticketmaster.dk/venue/klargoringscenter-hundige-ishoj-billetter/d10/203,12.34715,55.60526
DSB,København V,1560,Kalvebod Brygge 40,https://www.ticketmaster.dk/venue/dsb-kobenhavn-v-billetter/d12/203,12.57662,55.6707
"Christiansminde, Svendborg",Svendborg,5700,Christiansminde,https://www.ticketmaster.dk/venue/christiansminde-svendborg-svendborg-billetter/cms/203,10.63805,55.0594
Ny Carlsberg Glyptotek,København V,1656,Dantes Plads 7,https://www.ticketmaster.dk/venue/ny-carlsberg-glyptotek-kobenhavn-v-billetter/cng/203,12.57258,55.67293
Cafe Matissé,Kerteminde,5300,Dosseringen 20 B,https://www.ticketmaster.dk/venue/cafe-matisse-kerteminde-billetter/cma/278,10.66194,55.44872
Carlsberg Museum & Buisness Cent,Valby,2500,Valby Langgade 1,https://www.ticketmaster.dk/venue/carlsberg-museum--buisness-cent-valby-billetter/cmu/203,12.5294,55.66736
Club Empire,Nykøbing F,4800,Brovejen 8,https://www.ticketmaster.dk/venue/club-empire-nykobing-f-billetter/clu/203,11.87533,54.76572
Panorama,København V,1550,"Rådhuspladsen 16, 1 sal",https://www.ticketmaster.dk/venue/panorama-kobenhavn-v-billetter/clp/203,12.56719,55.67595
"Christians Kirken, Sønderborg",Sønderborg,6400,Christians Kirken,https://www.ticketmaster.dk/venue/christians-kirken-sonderborg-sonderborg-billetter/cks/203,9.80517,54.90942
Corselitze Gods,Nykøbing F,4800,Tromnæs Alleen 2F,https://www.ticketmaster.dk/venue/corselitze-gods-nykobing-f-billetter/clg/203,12.02029,54.76836
Christiansborg Slotskirke,København K,1218,Prins Jørgen Gård,https://www.ticketmaster.dk/venue/christiansborg-slotskirke-kobenhavn-k-billetter/csk/203,12.57945,55.67681
"Trommen, Caroline Mathilde Salen",Hørsholm,2970,Bibliotekstorvet 1,https://www.ticketmaster.dk/venue/trommen-caroline-mathilde-salen-horsholm-billetter/csa/205,12.49735,55.88069
CSH,Hillerød,3400,NA,https://www.ticketmaster.dk/venue/csh-hillerod-billetter/csh/192,12.29312,55.93606
Copenhagen Roasters,Valby,2500,Gl. Køge Landevej 22,https://www.ticketmaster.dk/venue/copenhagen-roasters-valby-billetter/cro/203,12.5138,55.65841
CIK Sports Center,København K,1407,Bådsmandsstræde 20,https://www.ticketmaster.dk/venue/cik-sports-center-kobenhavn-k-billetter/csc/203,12.59659,55.67296
Cirkusrevyen,Klampenborg,2930,Dyrehavsbakken,https://www.ticketmaster.dk/venue/cirkusrevyen-klampenborg-billetter/ckr/203,12.5751,55.77588
Cirkuspladsen Vejle-Centret Idræ,Vejle,7100,Cirkuspladsen,https://www.ticketmaster.dk/venue/cirkuspladsen-vejle-centret-idrae-vejle-billetter/civ/231,9.53825,55.71284
Ved Filadelfia,Dianalund,4293,ved Filadelfia,https://www.ticketmaster.dk/venue/ved-filadelfia-dianalund-billetter/dia/203,11.47569,55.52397
Rumors Club,København K,1165,Nørregade 1,https://www.ticketmaster.dk/venue/rumors-club-kobenhavn-k-billetter/din/203,12.57205,55.67859
DRUO - Diverse,København C,999,Emil Holms Kanal 20,https://www.ticketmaster.dk/venue/druo-diverse-kobenhavn-c-billetter/di4/210,12.59029,55.65829
Dansescenen i Dansehallerne,København V,1778,Pasteursvej 14-24,https://www.ticketmaster.dk/venue/dansescenen-i-dansehallerne-kobenhavn-v-billetter/did/203,12.53494,55.66557
Den Grønne v/Nyborg Slot,Nyborg,5800,Gasværksvej 2,https://www.ticketmaster.dk/venue/den-gronne-v-nyborg-slot-nyborg-billetter/dgn/203,10.784,55.3113
Den Gule Villa,Frederiksberg,2000,På hjørnet af Finsensvej og Dirch Passer,https://www.ticketmaster.dk/venue/den-gule-villa-frederiksberg-billetter/dgv/203,12.51794,55.68185
Den Gule Lade,Humlebæk,3050,Krogerupvej 3,https://www.ticketmaster.dk/venue/den-gule-lade-humlebaek-billetter/dgl/203,12.51484,55.98291
Domus Felix - Det gamle mejeri,Lejre,4320,Bygaden 20,https://www.ticketmaster.dk/venue/domus-felix-det-gamle-mejeri-lejre-billetter/dfe/203,11.90083,55.7052
Det Danske Teater,København NV,2400,Hvidkildevej 64,https://www.ticketmaster.dk/venue/det-danske-teater-kobenhavn-nv-billetter/ddt/203,12.51535,55.69983
Jazzhus Dexter,Odense C,5000,Vindegade 65,https://www.ticketmaster.dk/venue/jazzhus-dexter-odense-c-billetter/dex/237,10.37946,55.3974
Danmarks Grimmeste Festival,Brabrand,8220,Grimhøjvej 20,https://www.ticketmaster.dk/venue/grimfest-brabrand-billetter/dgf/203,10.12477,56.16865
Dragør Fort,Dragør,2791,Prins Knuds Dæmning 2,https://www.ticketmaster.dk/venue/dragor-fort-dragor-billetter/dfo/203,12.67838,55.5888
Det gl. Elværk,Maribo,4930,Banegårdspladsen 4,https://www.ticketmaster.dk/venue/det-gl-elvaerk-maribo-billetter/dge/204,11.50051,54.77665
"Dyrskuepladsen, Holstebro",Holstebro,7500,Lægårdsvej,https://www.ticketmaster.dk/venue/dyrskuepladsen-holstebro-holstebro-billetter/dho/203,8.62173,56.36153
Damhuskroen,Rødovre,2610,Roskildevej 244,https://www.ticketmaster.dk/venue/damhuskroen-rodovre-billetter/dhk/203,12.47392,55.67295
Dronning Margrethe Hallen,Fredericia,7000,Vestre Ringvej 101,https://www.ticketmaster.dk/venue/dronning-margrethe-hallen-fredericia-billetter/dha/203,9.72415,55.5795
Den Hirschsprungske Samling,København Ø,2100,Stockholmsgade 20,https://www.ticketmaster.dk/venue/den-hirschsprungske-samling-kobenhavn--billetter/dhi/203,12.57742,55.68995
World Symposium On Choral Music,København K,NA,Diverse Steder,https://www.ticketmaster.dk/venue/world-symposium-on-choral-music-kobenhavn-k-billetter/di3/203,12.56431,55.65165
Holsted & Fjelsted,Esbjerg,6700,Holsted & Fjelsted,https://www.ticketmaster.dk/venue/holsted--fjelsted-esbjerg-billetter/di2/203,8.8564,56.03564
Dragsholm Slot,Hørve,4534,Dragsholm Alle,https://www.ticketmaster.dk/venue/dragsholm-slot-horve-billetter/dhs/203,11.45457,55.75368
Diverse Steder,Frederiksberg,2000,TV2 - Club Lorry - Diverse Steder,https://www.ticketmaster.dk/venue/diverse-steder-frederiksberg-billetter/di1/171,12.56256,55.67196
Den Gamle Ridehal,Frederiksberg C,1870,Dyrlægevej 82,https://www.ticketmaster.dk/venue/den-gamle-ridehal-frederiksberg-c-billetter/dbr/203,12.53949,55.6814
"DR Byen, Studie 5",København S,2300,Amager Fælledvej 75,https://www.ticketmaster.dk/venue/dr-byen-studie-5-kobenhavn-s-billetter/dbs/203,12.59368,55.65879
Helle Koldsø,Give,7323,Vesterlundvej 94 - Thyregod,https://www.ticketmaster.dk/venue/helle-koldso-give-billetter/dbo/203,9.30558,55.91342
Djurs Bluesland,Randers,8900,"Stadionvej 41, Assentoft",https://www.ticketmaster.dk/venue/djurs-bluesland-randers-billetter/dbl/203,10.16109,56.44638
Musikteatret Holstebro Black Box,Holstebro,7500,Den Røde Plads 16,https://www.ticketmaster.dk/venue/musikteatret-holstebro-black-box-holstebro-billetter/dat/232,8.61632,56.35659
Dansborghallen,Hvidovre,2650,Sollentuna Alle 4,https://www.ticketmaster.dk/venue/dansborghallen-hvidovre-billetter/dbh/203,12.48272,55.63087
Das Beckværk,Søborg,2860,Buddinge Hovedgade 81,https://www.ticketmaster.dk/venue/das-beckvaerk-soborg-billetter/das/189,12.49234,55.74248
Det Biovidenskabelige Fakultet,Frederiksberg C,1871,Thorvalsensvej 40,https://www.ticketmaster.dk/venue/det-biovidenskabelige-fakultet-frederiksberg-c-billetter/dbf/203,12.54302,55.68174
DGI Byen,København V,1704,Tietgensgade 65,https://www.ticketmaster.dk/venue/dgi-byen-kobenhavn-v-billetter/dgi/203,12.565,55.67022
Den Gamle Godsbanegård,Slagelse,4200,Sdr. Stationsvej 30,https://www.ticketmaster.dk/venue/den-gamle-godsbanegard-slagelse-billetter/dgg/203,11.26043,55.37182
"Dansescenen, lille scene",Aarhus C,8000,Valdemarsgade 1,https://www.ticketmaster.dk/venue/dansescenen-lille-scene-aarhus-c-billetter/dan/241,10.19937,56.15208
"Dansescenen, Store Carl",København V,1778,Pasteursvej 20,https://www.ticketmaster.dk/venue/dansescenen-store-carl-kobenhavn-v-billetter/dah/233,12.53659,55.66509
Dampmøllen,Thisted,7700,Østerbakken 11,https://www.ticketmaster.dk/venue/dampmollen-thisted-billetter/dam/203,8.69817,56.95556
Gl. Estrup Dansk Landbrugsmuseum,Auning,8963,Randersvej 4,https://www.ticketmaster.dk/venue/gl-estrup-dansk-landbrugsmuseum-auning-billetter/dal/203,10.34202,56.43827
Bellahøj Friluftsscene,Brønshøj,2700,Bellahøjvej 20,https://www.ticketmaster.dk/venue/bellahoj-friluftsscene-bronshoj-billetter/bef/203,12.51118,55.70184
Bispebjerg Comedy Corner,København NV,2400,"Lygten Station, Lygten 2",https://www.ticketmaster.dk/venue/bispebjerg-comedy-corner-kobenhavn-nv-billetter/bcc/203,12.5377,55.70162
Bella Center A/S,København S,2300,Center Boulevard 5,https://www.ticketmaster.dk/venue/bella-center-kobenhavn-s-billetter/bec/203,12.57757,55.63826
Base Camp,København K,1434,Danneskiold-Samsøes Allé 20,https://www.ticketmaster.dk/venue/base-camp-kobenhavn-k-billetter/bca/203,12.60339,55.67753
Baltoppen,Ballerup,2750,Baltorpvej 20,https://www.ticketmaster.dk/venue/baltoppen-live-ballerup-billetter/bal/224,12.35197,55.73053
Bangs Have,Maribo,4930,Bangs Havevej 23,https://www.ticketmaster.dk/venue/bangs-have-maribo-billetter/bah/204,11.49509,54.77206
Baghuset,Ballerup,2750,Sct. Jacobsvej 1,https://www.ticketmaster.dk/venue/baghuset-ballerup-billetter/bag/224,12.35477,55.72451
Bagsværd Kirke,Bagsværd,2880,Taxvej 14-16,https://www.ticketmaster.dk/venue/bagsvaerd-kirke-bagsvaerd-billetter/bak/203,12.44267,55.76219
"Arkitektskolen, Auditorium 1",København K,1435,Danneskiold-Samsøes Allé 53,https://www.ticketmaster.dk/venue/arkitektskolen-auditorium-1-kobenhavn-k-billetter/ats/203,12.6052,55.68227
Axelborg,København V,1620,Vesterbrogade 4,https://www.ticketmaster.dk/venue/axelborg-kobenhavn-v-billetter/axe/203,12.56447,55.67465
Aulum Kirke,Aulum,7490,Kirkegade 20,https://www.ticketmaster.dk/venue/aulum-kirke-aulum-billetter/aul/203,8.79886,56.26759
Avenue Hotel,Frederiksberg,1960,Åboulevard 29,https://www.ticketmaster.dk/venue/avenue-hotel-frederiksberg-billetter/avh/203,12.55263,55.68478
Auktionshuset,Aarhus C,8000,Mejlgade 45 - Baghuset,https://www.ticketmaster.dk/venue/auktionshuset-aarhus-c-billetter/auk/203,10.22722,56.16528
Bazooka Club,København S,2300,Holmbladsgade 138,https://www.ticketmaster.dk/venue/bazooka-club-kobenhavn-s-billetter/baz/203,12.62109,55.66798
Basement,København K,1674,Enghavevej 42,https://www.ticketmaster.dk/venue/basement-kobenhavn-k-billetter/bas/203,12.54414,55.66778
Frøbjerg Bavnehøj,Aarup,5560,Frøbjergvej 76,https://www.ticketmaster.dk/venue/frobjerg-bavnehoj-aarup-billetter/bav/237,10.10758,55.33546
Baunehøjhallen,København SV,2450,Enghavevej 90,https://www.ticketmaster.dk/venue/baunehojhallen-kobenhavn-sv-billetter/bau/203,12.5386,55.65968
Bangsbostrand Kirke,Frederikshavn,9900,Søndergade 206,https://www.ticketmaster.dk/venue/bangsbostrand-kirke-frederikshavn-billetter/bbs/203,10.51891,57.42389
Brøndbyøster Bibliotek,Brøndby,2605,Brøndbyøster Boulevard 22,https://www.ticketmaster.dk/venue/brondbyoster-bibliotek-brondby-billetter/bbi/203,12.44303,55.66115
"Boblen, Århus Festuge",Aarhus C,8000,Honnørkajen v/Europaplads,https://www.ticketmaster.dk/venue/boblen-arhus-festuge-aarhus-c-billetter/bbl/203,10.21245,56.15337
Kulturhuset Bernhard,Præstø,4720,Adelgade 41,https://www.ticketmaster.dk/venue/kulturhuset-bernhard-praesto-billetter/bbe/203,12.04059,55.12165
Brønshøj Boldklub,Brønshøj,2700,Ruten 2,https://www.ticketmaster.dk/venue/bronshoj-boldklub-bronshoj-billetter/bbk/203,12.49233,55.71882
"Ceres Arena, Aarhus",Aarhus C,8000,Stadion Allé 70,https://www.ticketmaster.dk/venue/ceres-arena-aarhus-aarhus-c-billetter/atl/236,10.19364,56.13221
Restaurant Marina Furesøbad,Værløse,3500,Frederiksborgvej 101,https://www.ticketmaster.dk/venue/restaurant-marina-furesobad-vaerlose-billetter/baf/203,12.38645,55.80286
Bådfarten,Kongens Lyngby,2800,Frederiksdal,https://www.ticketmaster.dk/venue/badfarten-kongens-lyngby-billetter/baa/272,12.44595,55.78035
Badstuen,Odense C,5000,Østre Stationsvej 26,https://www.ticketmaster.dk/venue/badstuen-odense-c-billetter/bad/203,10.38225,55.39991
Ballerup Bowling,Ballerup,2750,Tempovej 35 E,https://www.ticketmaster.dk/venue/ballerup-bowling-ballerup-billetter/bab/203,12.37699,55.72351
Aalborg Taekwondo Klub,Aalborg,9000,Poul Paghs Gade 2,https://www.ticketmaster.dk/venue/aalborg-taekwondo-klub-aalborg-billetter/atk/203,9.91019,57.05107
"Aarhus teater , Store Sal",Aarhus C,8000,Teatergaden,https://www.ticketmaster.dk/venue/aarhus-teater--store-sal-aarhus-c-billetter/ast/229,9.556,56.102
Arena Syd,Vamdrup,6580,Idrætsvej 3,https://www.ticketmaster.dk/venue/arena-syd-vamdrup-billetter/asy/203,9.27829,55.43152
"Aarhus Teater, Store Scene",Aarhus C,8000,Teatergaden,https://www.ticketmaster.dk/venue/aarhus-teater-store-scene-aarhus-c-billetter/ast/225,9.556,56.102
ASA,Aarhus C,8000,F. Vestergaardsgade 3,https://www.ticketmaster.dk/venue/asa-aarhus-c-billetter/asv/203,10.1103,56.09408
Assistens Kirkegård,København N,2200,Kapelvej 4,https://www.ticketmaster.dk/venue/assistens-kirkegard-kobenhavn-n-billetter/ass/203,12.5523,55.68962
Asnæs Forsamlingshus,Asnæs,4550,Esterhøjvej 26,https://www.ticketmaster.dk/venue/asnaes-forsamlingshus-asnaes-billetter/asn/203,11.49856,55.81629
Astrologihuset,København N,2200,Nørrebrogade 66 D,https://www.ticketmaster.dk/venue/astrologihuset-kobenhavn-n-billetter/asr/203,12.55484,55.69135
Asminderød Kro,Fredensborg,3480,Asminderødgade 53,https://www.ticketmaster.dk/venue/asminderod-kro-fredensborg-billetter/asm/203,12.40787,55.96898
Ansgars Kirke,Odense C,5000,Sdr. Boulevard 1,https://www.ticketmaster.dk/venue/ansgars-kirke-odense-c-billetter/ans/203,10.37858,55.39148
Antvorskovhallen,Slagelse,4200,Sejerøvej 1,https://www.ticketmaster.dk/venue/spar-nord-arena-slagelse-billetter/ant/203,11.35637,55.39291
?,København V,1610,NA,https://www.ticketmaster.dk/venue/--kobenhavn-v-billetter/ann/207,12.55316,55.67256
Apostolsk Kirke,Kolding,6000,Lykkegaardsvej 67,https://www.ticketmaster.dk/venue/apostolsk-kirke-kolding-billetter/apo/203,9.451,55.48046
LevLykkeligt Live,København Ø,2100,"Blegdamsvej 32, 1. sal",https://www.ticketmaster.dk/venue/levlykkeligt-live-kobenhavn--billetter/aol/203,12.56528,55.69285
Arbejdermuseet,København K,1362,Rømersgade 22,https://www.ticketmaster.dk/venue/arbejdermuseet-kobenhavn-k-billetter/arb/203,12.57011,55.68487
Vestereng,Aarhus C,8000,Vestereng,https://www.ticketmaster.dk/venue/vestereng-aarhus-c-billetter/arv/203,9.556,56.102
Årbækmølle Strand,Øster Assels,7990,Årbækmøllevej 20,https://www.ticketmaster.dk/venue/arbaekmolle-strand-ster-assels-billetter/ars/203,8.78471,56.71813
Asterions Hus,København K,1432,William Wains Gade 9-11,https://www.ticketmaster.dk/venue/asterions-hus-kobenhavn-k-billetter/ash/203,12.61268,55.69662
Amfiscenen v/Geografisk Have,Kolding,6000,Chr. 4 vej 55,https://www.ticketmaster.dk/venue/amfiscenen-v-geografisk-have-kolding-billetter/asc/203,9.47305,55.49597
Aalborg Teater - Skolescenen,Aalborg,9000,Jernbanegade 9-11,https://www.ticketmaster.dk/venue/aalborg-teater-skolescenen-aalborg-billetter/ask/165,10.11538,56.88681
Sct. Andreas Kirke,København K,1123,Gothersgade 148,https://www.ticketmaster.dk/venue/sct-andreas-kirke-kobenhavn-k-billetter/and/203,12.56855,55.68603
"Festivalpladsen, Ans Søbred",Ans By,8643,Søgade,https://www.ticketmaster.dk/venue/festivalpladsen-ans-sobred-ans-by-billetter/anb/203,8.89502,56.4647
"Amfiscenen, Brands Klædefafabrik",Odense C,5000,Brandts Passage,https://www.ticketmaster.dk/venue/amfiscenen-brandts-klaedefabrik-odense-c-billetter/amf/237,10.38133,55.39525
Beta,København S,2300,Øresundsvej 6,https://www.ticketmaster.dk/venue/beta-kobenhavn-s-billetter/amb/256,12.60935,55.65794
Århus Hovedbibliotek,Aarhus C,8000,Møllegade 1,https://www.ticketmaster.dk/venue/arhus-hovedbibliotek-aarhus-c-billetter/arh/203,10.05126,56.10692
Arken,Ishøj,2635,Skovvej 100,https://www.ticketmaster.dk/venue/arken-ishoj-billetter/ark/176,12.38764,55.60612
Alternativ Sommerfestival,Herning,7400,"Hjøllundvej 27, Arnborg",https://www.ticketmaster.dk/venue/alternativ-sommerfestival-herning-billetter/alt/203,8.96705,56.01183
Cirkuspladsen,Brovst,NA,Cirkuspladsen,https://www.ticketmaster.dk/venue/cirkuspladsen-brovst-billetter/c51/203,9.5319,57.1259
Cirkuspladsen i Hune,Blokhus,NA,Cirkuspladsen i Hune,https://www.ticketmaster.dk/venue/cirkuspladsen-i-hune-blokhus-billetter/c48/203,9.61532,57.24774
Dyrskuepladsen i Skalborg,Aalborg,NA,Dyrskuepladsen i Skalborg,https://www.ticketmaster.dk/venue/dyrskuepladsen-i-skalborg-aalborg-billetter/c50/203,9.88764,57.00618
Kystvejen mod,Løgstrup,NA,Kystvejen mod Harrerenden,https://www.ticketmaster.dk/venue/kystvejen-mod-logstrup-billetter/c47/203,9.80649,57.47472
Birkelsevej,Aabybro,9440,Birkelsevej,https://www.ticketmaster.dk/venue/birkelsevej-aabybro-billetter/c49/203,9.72599,57.15626
v/Sportspladsen,Hornslet,8543,v/Sportspladsen,https://www.ticketmaster.dk/venue/v-sportspladsen-hornslet-billetter/c36/203,10.31727,56.3155
Lilleåparken,Hadsten,8370,Lilleåparken,https://www.ticketmaster.dk/venue/lilleaparken-hadsten-billetter/c33/203,10.04776,56.32995
Kasernen/Mariagervej,Randers,8900,Kasernen/Mariagervej,https://www.ticketmaster.dk/venue/kasernen-mariagervej-randers-billetter/c32/203,10.03129,56.46948
v/Rønbækskolen,Hinnerup,8382,v/Rønbækskolen,https://www.ticketmaster.dk/venue/v-ronbaekskolen-hinnerup-billetter/c34/203,10.06338,56.265
Luffes Plads,Nordborg,6430,Luffes plads,https://www.ticketmaster.dk/venue/luffes-plads-nordborg-billetter/c18/203,9.74664,55.05708
Hj. Spangsbjerg Møllevej/Steng..,Esbjerg,NA,Hj. Spangsbjerg Mølle vej/Stengårdsvej,https://www.ticketmaster.dk/venue/hj-spangsbjerg-mollevej-steng-esbjerg-billetter/c20/203,8.45895,55.4944
Hovedengen,Ribe,6760,Hovedengen,https://www.ticketmaster.dk/venue/hovedengen-ribe-billetter/c19/203,8.76123,55.33144
"Gl, Sportsplads bag Rådhuset",Ry,8680,Gl. Sportsplads bag Rådhuset,https://www.ticketmaster.dk/venue/gl-sportsplads-bag-radhuset-ry-billetter/c26/203,9.76659,56.09067
Ved Hallen,Vinderup,7830,ved Hallen,https://www.ticketmaster.dk/venue/ved-hallen-vinderup-billetter/c23/203,8.78071,56.47859
Dannebrogpladsen,Ulstrup,8866,Dannebrogpladsen,https://www.ticketmaster.dk/venue/dannebrogpladsen-ulstrup-billetter/c25/203,9.79186,56.38884
Ved Safari Caravan,Struer,7600,"Holstebrovej, Gimsing",https://www.ticketmaster.dk/venue/ved-safari-caravan-struer-billetter/c22/203,8.58395,56.47943
Centervej,Lystrup,8520,Centervej,https://www.ticketmaster.dk/venue/centervej-lystrup-billetter/c41/203,10.23357,56.23656
Byparken,Auning,8963,Byparken,https://www.ticketmaster.dk/venue/byparken-auning-billetter/c38/203,NA,NA
Strandvejen,Ebeltoft,8400,Strandvejen,https://www.ticketmaster.dk/venue/festpladsen-v-strandvejen-ebeltoft-billetter/c40/203,10.67431,56.19737
Gl. Sporstplads,Ørsted,8950,Gl. Sportsplads,https://www.ticketmaster.dk/venue/gl-sporstplads-rsted-billetter/c37/203,10.33593,56.50173
Cirkuspladsen,Kolind,8560,Cirkuspladsen,https://www.ticketmaster.dk/venue/cirkuspladsen-kolind-billetter/c39/203,9.556,56.102
Ved Rådhuset,Hirtshals,NA,Ved Rådhuset,https://www.ticketmaster.dk/venue/ved-radhuset-hirtshals-billetter/c46/203,9.96684,57.58695
v/Skolen,Storvorde,9280,v/Skolen,https://www.ticketmaster.dk/venue/v-skolen-storvorde-billetter/c43/203,10.26999,56.97421
Ved Klitgården,Bindslev,NA,Ved Klitgården Tversted/Tannisby,https://www.ticketmaster.dk/venue/ved-klitgarden-bindslev-billetter/c45/203,10.19923,57.54157
Markedpladsen,Brønderslev,9700,Markedpladsen,https://www.ticketmaster.dk/venue/markedpladsen-bronderslev-billetter/c42/203,9.94517,57.2709
Buttervej,Skagen,NA,Buttervej,https://www.ticketmaster.dk/venue/buttervej-skagen-billetter/c44/203,10.56911,57.72845
Tvedvej,Kolding,6000,Sydhavnen,https://www.ticketmaster.dk/venue/tvedvej-kolding-billetter/c16/203,9.47305,55.49597
Telemarken,Faaborg,5600,Telemarken,https://www.ticketmaster.dk/venue/telemarken-faaborg-billetter/c13/203,10.22786,55.10943
Cirkuspladsen,Vejen,6600,Cirkuspladsen,https://www.ticketmaster.dk/venue/cirkuspladsen-vejen-billetter/c15/203,9.138,55.47922
Dyrskuepladsen,Ringe,5750,Dyrskuepladsen,https://www.ticketmaster.dk/venue/dyrskuepladsen-ringe-billetter/c12/203,10.47969,55.23615
Elllehaven,Tommerup,5690,Ellehaven,https://www.ticketmaster.dk/venue/elllehaven-tommerup-billetter/c14/203,10.21239,55.31263
v/Hallen,Årslev,5792,v/Hallen,https://www.ticketmaster.dk/venue/v-hallen-arslev-billetter/c11/203,10.44808,55.29691
"v/butikstorvet,Bullerup",Agedrup,5320,"v/Butikstorvet, Bullerup",https://www.ticketmaster.dk/venue/v-butikstorvetbullerup-agedrup-billetter/c10/203,10.47358,55.42796
Dyrskuepladsen,Juelsminde,7130,Dyrskuepladsen,https://www.ticketmaster.dk/venue/dyrskuepladsen-juelsminde-billetter/c07/203,9.99883,55.70881
v/Nordvestskolen,Otterup,5450,Horsebækvej 25,https://www.ticketmaster.dk/venue/v-nordvestskolen-otterup-billetter/c09/203,10.39355,55.5178
Dyreskuepladsen/Hjortsballe,Give,7323,Dyreskuepladsen/Hjortsballe,https://www.ticketmaster.dk/venue/dyreskuepladsen-hjortsballe-give-billetter/c31/203,9.25261,55.86367
Ringriderpladsen,Agerskov,6534,Ringriderpladsen,https://www.ticketmaster.dk/venue/ringriderpladsen-agerskov-billetter/c28/203,9.556,56.102
Festpladsen-Industri Vest,Brørup,6650,Festpladsen-Industri Vest,https://www.ticketmaster.dk/venue/festpladsen-industri-vest-brorup-billetter/c30/203,9.00515,55.48367
v/ Hallen,Holsted,6670,v/Hallen,https://www.ticketmaster.dk/venue/v-hallen-holsted-billetter/c27/203,8.9157,55.50834
Slotsengen,Løgumkloster,6240,Slotsengen,https://www.ticketmaster.dk/venue/slotsengen-logumkloster-billetter/c29/203,9.0039,55.06166
Langelinie,Horsens,8700,Hattingvej 6,https://www.ticketmaster.dk/venue/dyrskuepladsen-horsens-billetter/c06/203,9.87479,55.85814
Ø.L.A.,Skanderborg,8660,Ø.L.A.,https://www.ticketmaster.dk/venue/la-skanderborg-billetter/c03/203,9.556,56.102
ved Børnehave-Ø. Ringgade,Hedensted,8722,Ved Børnehave-Ø. Ringgade,https://www.ticketmaster.dk/venue/ved-bornehave--ringgade-hedensted-billetter/c05/203,9.70228,55.77172
Ved Idrættens Hus,Vejle,7100,Willy Sørensens Plads 5,https://www.ticketmaster.dk/venue/ved-idraettens-hus-vejle-billetter/c02/203,9.51801,55.70649
BUEN,Brædstrup,8740,BUEN,https://www.ticketmaster.dk/venue/buen-braedstrup-billetter/c04/203,9.60716,55.97706
DENMARK,Henne,6854,Strandvejen 234,https://www.ticketmaster.be/venue/denmark-henne-tickets/hen/101,8.241788,55.726604
DENMARK,København K,NA,Strandgade 93,https://www.ticketmaster.be/venue/denmark-kobenhavn-k-tickets/nom/101,12.59633,55.677939
Atletion Stadion DK,Aarhus C,8000,Stadion Alle 70,https://www.ticketmaster.no/venue/atletion-stadion-dk-aarhus-c-billetter/atl/3,NA,NA
FNB Stadium,Johannesburg,12345,NA,https://www.google.dk/,NA,NA
DHL Stadium,Cape Town,12345,NA,https://www.google.dk/,NA,NA
Grand Arena at GrandWest,Cape Town,12345,NA,https://www.google.dk/,NA,NA
SunBet Arena Time Square,Pretoria,12345,NA,https://www.google.dk/,NA,NA
Cape Town Stadium,Cape Town,12345,NA,https://www.google.dk/,NA,NA
Livestream,Copenhagen,12345,NA,https://www.google.dk/,11.987505,57.705909
MEAS infra test,København NV,NA,NA,https://www.ticketmaster.fi/venue/meas-test-kobenhavn-nv-lippuja/meas/303,9.556,56.102
Østergades Forsamlingshus,Middelfart,5500,Østergade 33,https://www.ticketmaster.dk/venue/stergades-forsamlingshus-middelfart-billetter/ofh/203,9.73931,55.50374
Babylon Huset,Hasselager,8361,Elmegårdsvej 20,https://www.ticketmaster.dk/venue/babylon-huset-hasselager-billetter/bay/203,10.10787,56.11111
Musikskolen i Thy,Thisted,7700,Tingstrupvej 17,https://www.ticketmaster.dk/venue/musikskolen-i-thy-thisted-billetter/muh/203,8.68543,56.9556
Frederiksberg Slot,Frederiksberg,2000,Roskildevej 28A,https://www.ticketmaster.dk/venue/frederiksberg-slot-frederiksberg-billetter/fgs/203,12.52768,55.67182
Torvehallerne,København K,1360,Frederiksborggade 21,https://www.ticketmaster.dk/venue/torvehallerne-kobenhavn-k-billetter/thl/203,12.56977,55.68369
Hotel Carmel,Aarhus C,8000,Nørre Alle 23C,https://www.ticketmaster.dk/venue/hotel-carmel-aarhus-c-billetter/hcl/203,10.20605,56.16006
Musisk Skole Kalundborg,Kalundborg,4400,Koncertsalen - Skovbrynet 55,https://www.ticketmaster.dk/venue/musisk-skole-kalundborg-kalundborg-billetter/mka/203,11.08372,55.69081
Gentoftehallen,Gentofte,2820,Ved Stadion 14,https://www.ticketmaster.dk/venue/gentoftehallen-gentofte-billetter/gta/203,12.52603,55.75768
Sallie's Restaurant & Snack Bar,Albertslund,2620,Roskildevej 251,https://www.ticketmaster.dk/venue/sallies-restaurant--snack-bar-albertslund-billetter/sna/203,12.32889,55.65989
Hovedbiblioteket,Esbjerg,6700,Nørregade 19,https://www.ticketmaster.dk/venue/hovedbiblioteket-esbjerg-billetter/hoq/203,8.45473,55.4692
Marstal Kirke,Marstal,5960,Kongensgade 35,https://www.ticketmaster.dk/venue/marstal-kirke-marstal-billetter/maj/203,10.51693,54.85507
Teltscenen i Haven,Thisted,7700,Tingstrupvej 2,https://www.ticketmaster.dk/venue/teltscenen-i-haven-thisted-billetter/cht/203,8.68718,56.9573
Enigma,København Ø,2100,Øster Allé 1,https://www.ticketmaster.dk/venue/enigma-kobenhavn--billetter/eni/203,12.57507,55.69964
Viborg Katedralskole - Festsalen,Viborg,8800,Gl. Skivevej 2,https://www.ticketmaster.dk/venue/viborg-katedralskole-festsalen-viborg-billetter/vkf/194,9.41207,56.45734
"Vejen Idrætscenter, Sal 4",Vejen,6600,Petermindesvej 1,https://www.ticketmaster.dk/venue/vejen-idraetscenter-sal-4-vejen-billetter/vic4/286,9.11977,55.47483
Københavns Professionshøjskole,København V,1799,Humletorvet 3,https://www.ticketmaster.dk/venue/kobenhavns-professionshojskole-kobenhavn-v-billetter/kpf/203,12.53583,55.66398
Frederikshavn Kirke,Frederikshavn,9900,Kirkepladsen 6,https://www.ticketmaster.dk/venue/frederikshavn-kirke-frederikshavn-billetter/fhk/203,10.53818,57.44059
Vorupør Strand,Thisted,7700,Vesterhavsgade 182,https://www.ticketmaster.dk/venue/vorupor-strand-thisted-billetter/vsr/203,8.36494,56.95971
Løjt Hallen,Aabenraa,6200,Skolegade 17,https://www.ticketmaster.dk/venue/lojt-hallen-aabenraa-billetter/ljh/203,9.40881,54.93802
Sct. Johannes Kirke,Herning,7400,Fredhøj Alle 2,https://www.ticketmaster.dk/venue/sct-johannes-kirke-herning-billetter/sjf/203,8.9612,56.14065
"Aarhus Teater, Kampmann salen",Aarhus C,8000,Teatergaden,https://www.ticketmaster.dk/venue/aarhus-teater-kampmann-salen-aarhus-c-billetter/aks/203,10.21066,56.1562
2018 IIHF WM FANZONE,København S,2300,Krydset Hannemanns Allé og Ove Arups Vej,https://www.ticketmaster.dk/venue/2018-iihf-wm-fanzone-kobenhavn-s-billetter/ry1/321,12.5737,55.62575
"BAMOK, Båring",Asperup,5466,Byvejen 29,https://www.ticketmaster.dk/venue/bamok-baring-asperup-billetter/bao/203,9.90856,55.48883
2018 IIHF WM FANZONE - Hall F,Herning,7400,Kaj Zartows Vej 7,https://www.ticketmaster.dk/venue/2018-iihf-wm-fanzone-hall-f-herning-billetter/jb1/321,8.95375,56.11813
Scandic Olympic,Esbjerg,6700,Strandbygade 3,https://www.ticketmaster.dk/venue/scandic-olympic-esbjerg-billetter/scy/203,8.44211,55.46696
Marielyst Torv,Væggerløse,4873,Marielyst Strandvej 54,https://www.ticketmaster.dk/venue/marielyst-torv-vaeggerlose-billetter/mtt/203,11.9652,54.69086
Remember Club,Kastrup,2770,Taarnby torv 11A,https://www.ticketmaster.dk/venue/remember-club-kastrup-billetter/rcl/203,12.60147,55.63006
Sundeved Efterskole,Aabenraa,6200,"Bovrup Storegade 5, Bovrup",https://www.ticketmaster.dk/venue/sundeved-efterskole-aabenraa-billetter/sef/203,9.58223,54.99623
"AULAEN, Skottegårdsskolen",Kastrup,2770,"Saltværksvej 65, indgang v/Nordmarksvej",https://www.ticketmaster.dk/venue/aulaen-skottegardsskolen-kastrup-billetter/asl/203,12.63766,55.63775
Bitcoin Arena,Rungsted Kyst,2960,Stadionallé 11,https://www.ticketmaster.dk/venue/bitcoin-arena-rungsted-kyst-billetter/bcr/304,12.51833,55.89657
Paladsteltet (v. Øresundsparken),Kastrup,2770,Amager Strandvej 280,https://www.ticketmaster.dk/venue/paladsteltet-v-resundsparken--kastrup-billetter/fl9/203,12.64386,55.64513
ICO,København K,1499,NA,https://www.ticketmaster.dk/venue/ico-kobenhavn-k-billetter/divi/154,12.57954,55.6842
Paladsteltet v. Cortex Park,Odense M,5230,Niels Bohrs Allé 149,https://www.ticketmaster.dk/venue/paladsteltet-v-cortex-park-odense-m-billetter/fl8/203,10.43398,55.3765
Live Nation,København K,1499,NA,https://www.ticketmaster.dk/venue/live-nation-kobenhavn-k-billetter/divl/284,12.57954,55.6842
"Mærsktårnets kantine, Panum",København N,2200,Blegdamsvej 3B,https://www.ticketmaster.dk/venue/maersktarnets-kantine-panum-kobenhavn-n-billetter/map/203,12.5642,55.69281
"Hjørring Bibliotek, Metropol",Hjørring,9800,Østergade 30,https://www.ticketmaster.dk/venue/hjorring-bibliotek-metropol-hjorring-billetter/hrb/203,9.99081,57.45737
Firskovvej,Kongens Lyngby,2800,NA,https://www.ticketmaster.dk/venue/firskovvej-kongens-lyngby-billetter/a165/203,12.51567,55.77029
Vendsyssel Teater,Hjørring,9800,Banegårdspladsen 4,https://www.ticketmaster.dk/venue/vendsyssel-teater-hjorring-billetter/vet/203,9.98519,57.45676
Manegen,Sæby,9300,Rådhuspladsen 2,https://www.ticketmaster.dk/venue/manegen-saeby-billetter/mng/203,10.50549,57.33375
Restaurant Friheden,Aarhus C,8000,Skovbrynet 5,https://www.ticketmaster.dk/venue/restaurant-friheden-aarhus-c-billetter/rfn/281,10.19582,56.1372
Galleri7,Frederikshavn,9900,Silovej 8,https://www.ticketmaster.dk/venue/galleri7-frederikshavn-billetter/glr/203,10.54519,57.43891
Greve Gymnasium,Greve,2670,Rådhusholmen 12,https://www.ticketmaster.dk/venue/greve-gymnasium-greve-billetter/ggg/275,12.29017,55.583
Højmark Forsamlingshus & Haller,Lem St,6940,"Adelvej 41, Højmark",https://www.ticketmaster.dk/venue/hojmark-forsamlingshus--haller-lem-st-billetter/hfh/203,8.40497,56.05258
Restaurant Terrassen,Aarhus C,8000,Skovbrynet 5,https://www.ticketmaster.dk/venue/restaurant-terrassen-aarhus-c-billetter/ret/281,NA,NA
Espelunden,Rødovre,2610,Rødovre Parkvej 501,https://www.ticketmaster.dk/venue/espelunden-rodovre-billetter/epl/203,12.43292,55.67588
Restaurant Bellahøj,Brønshøj,2700,Bellahøjvej 20,https://www.ticketmaster.dk/venue/restaurant-bellahoj-bronshoj-billetter/rbe/203,12.51078,55.70201
Hotel Odeon,Odense C,5000,Odeons Kvarter 11,https://www.ticketmaster.dk/venue/hotel-odeon-odense-c-billetter/hdt/259,10.38986,55.39706
Adventskirken,Vanløse,2720,Sallingvej 90,https://www.ticketmaster.dk/venue/adventskirken-vanlose-billetter/adv/203,12.49533,55.69396
"Skuespilhuset, Kørner Lounge",København K,1250,Sankt Annæ Plads 36,https://www.ticketmaster.dk/venue/skuespilhuset-korner-lounge-kobenhavn-k-billetter/dsr/203,12.59469,55.68044
Ansgarskirken,Erslev,7950,Præstbrovej 347,https://www.ticketmaster.dk/venue/ansgarskirken-erslev-billetter/ang/203,8.71266,56.83647
"Auditoriet, Hovedbygningen MCH",Herning,7400,Vardevej 1,https://www.ticketmaster.dk/venue/auditoriet-hovedbygningen-mch-herning-billetter/aum/230,8.95259,56.12307
Teglværket,København SV,2450,Teglholmsgade 27,https://www.ticketmaster.dk/venue/teglvaerket-kobenhavn-sv-billetter/tga/203,12.55079,55.65278
Comwell Sorø,Sorø,4180,Abildvej 100,https://www.ticketmaster.dk/venue/comwell-soro-soro-billetter/cws/203,11.54581,55.45115
Vestervig-Agger Aktivitetscenter,Vestervig,7770,"TCMA, Teglgaardsvej 5",https://www.ticketmaster.dk/venue/vestervig-agger-aktivitetscenter-vestervig-billetter/tcm/203,8.32302,56.76491
"Fængselsgården, FÆNGSLET",Horsens,8700,Fussingsvej 8,https://www.ticketmaster.dk/venue/faengselsgarden-fngslet-horsens-billetter/hfi/320,9.83536,55.87511
Odense Koncerthus Pro Musica Sal,Odense C,5000,Claus Bergs Gade 7,https://www.ticketmaster.dk/venue/odense-koncerthus-pro-musica-sal-odense-c-billetter/prm/226,10.39234,55.3997
Gl. Estrup - Herregårdsmuseet,Auning,8963,Randersvej 4,https://www.ticketmaster.dk/venue/gl-estrup-herregardsmuseet-auning-billetter/ghe/203,10.34432,56.43795
Pavillon på Niels Bugges Kro,Viborg,8800,Ravnsbjergvej 69,https://www.ticketmaster.dk/venue/pavillon-pa-niels-bugges-kro-viborg-billetter/nip/203,9.33765,56.38872
Krabbesholm Skov,Skive,7800,Strandvejen,https://www.ticketmaster.dk/venue/krabbesholm-skov-skive-billetter/kra/203,9.05083,56.57545
"Dyrskuepladsen, Odense",Odense SV,5250,NA,https://www.ticketmaster.dk/venue/dyrskuepladsen-odense-odense-sv-billetter/dsk/284,10.3834,55.39479
Hjørring Gymnasium,Hjørring,9800,Skolevangen 23,https://www.ticketmaster.dk/venue/hjorring-gymnasium-hjorring-billetter/hjg/203,9.99651,57.45897
Ulfkær Kirke,Ulfborg,6990,Herredsgade 12,https://www.ticketmaster.dk/venue/ulfkaer-kirke-ulfborg-billetter/ukk/203,8.31996,56.27113
Lemvig Gamle Stadion,Lemvig,7620,Sølystvej 3,https://www.ticketmaster.dk/venue/lemvig-gamle-stadion-lemvig-billetter/lgm/203,8.31526,56.54839
"Sønderlænge, Valdemars Slot",Svendborg,5700,Slotsalleen 100,https://www.ticketmaster.dk/venue/sonderlaenge-valdemars-slot-svendborg-billetter/vml/259,10.65312,55.02232
Vodskov Kirke,Vodskov,9310,Vodskov Kirkevej 73,https://www.ticketmaster.dk/venue/vodskov-kirke-vodskov-billetter/vov/203,10.12513,57.06596
"Skuespilhuset, Lille Scene",København K,1250,Sankt Annæ Plads 36,https://www.ticketmaster.dk/venue/skuespilhuset-lille-scene-kobenhavn-k-billetter/dsl/203,12.59465,55.68045
Vorupør Kirke,Thisted,7700,Bredkærvej 1,https://www.ticketmaster.dk/venue/vorupor-kirke-thisted-billetter/vrr/203,8.37379,56.94964
Viborg Teater,Viborg,8800,Gravene 25,https://www.ticketmaster.dk/venue/viborg-teater-viborg-billetter/vit/154,9.40537,56.45031
Egebæksvang Kirke,Espergærde,3060,Strandvejen 336D,https://www.ticketmaster.dk/venue/egebaeksvang-kirke-espergaerde-billetter/ebk/203,12.56104,55.9949
Teater 95B,Odense C,5000,Vestergade 95B,https://www.ticketmaster.dk/venue/teater-95b-odense-c-billetter/95b/154,10.38021,55.39406
Bistro Hans Christian,Odense C,5000,Claus Bergs Gade 7,https://www.ticketmaster.dk/venue/bistro-hans-christian-odense-c-billetter/bhc/313,10.39289,55.39902
Løve's Bog- og VinCafé,Aarhus C,8000,Nørregade 32,https://www.ticketmaster.dk/venue/loves-bog-og-vincafe-aarhus-c-billetter/lbv/203,10.20926,56.16083
"Forum Horsens, Hal 2",Horsens,8700,Langmarksvej 53,https://www.ticketmaster.dk/venue/forum-horsens-hal-2-horsens-billetter/fho2/320,9.8557,55.8716
Sundheds- og Kvarterhuset,Aalborg Øst,9220,Fyrkildevej 7,https://www.ticketmaster.dk/venue/sundheds-og-kvarterhuset-aalborg-st-billetter/sua/154,10.00448,57.02705
Hanstholm Madbar,Hanstholm,7730,Helsehagevej 98,https://www.ticketmaster.dk/venue/hanstholm-madbar-hanstholm-billetter/hmb/154,8.59387,57.1166
Høloftet,Thyholm,7790,Skærshøjvej 11,https://www.ticketmaster.dk/venue/holoftet-thyholm-billetter/hty/203,8.49844,56.62774
Dronninglund Slotskirke,Dronninglund,9330,Slotsgade 8B,https://www.ticketmaster.dk/venue/dronninglund-slotskirke-dronninglund-billetter/drs/203,10.26223,57.15497
Thisted Skole,Thisted,7700,Silstrupvej 47,https://www.ticketmaster.dk/venue/thisted-skole-thisted-billetter/tsl/203,8.64266,56.94931
Samsung,Frederiksberg C,1850,Diverse spillesteder,https://www.ticketmaster.dk/venue/samsung-frederiksberg-c-billetter/s00/284,12.55414,55.67398
Præstegården i Snedsted,Snedsted,7752,Snedstedvej,https://www.ticketmaster.dk/venue/praestegarden-i-snedsted-snedsted-billetter/psn/203,8.56727,56.89053
Sct. Catharinae Kirke,Ribe,6760,Sct Cathariae Plads 4,https://www.ticketmaster.dk/venue/sct-catharinae-kirke-ribe-billetter/ckg/203,8.76527,55.3275
Kulisselageret,Horsens,8700,Teatertorvet,https://www.ticketmaster.dk/venue/kulisselageret-horsens-billetter/kgt/320,9.84733,55.86298
ODEON Social,Odense C,5000,Odeons Kvarter 1,https://www.ticketmaster.dk/venue/odeon-social-odense-c-billetter/ods/313,10.39285,55.3988
RAW Fitness,Middelfart,5500,Falstersvej 11,https://www.ticketmaster.dk/venue/raw-fitness-middelfart-billetter/raw/203,12.56834,55.6761
Søndermarken,Frederiksberg,2000,NA,https://www.ticketmaster.dk/venue/sondermarken-frederiksberg-billetter/sdm/203,12.52491,55.66916
ODEON - Teatersalen,Odense C,5000,Odeons Kvarter 1,https://www.ticketmaster.dk/venue/odeon-teatersalen-odense-c-billetter/oot/313,10.39285,55.39828
Sundbus M/S Pernille,Helsingør,3000,Allegade 2,https://www.ticketmaster.dk/venue/sundbus-m-s-pernille-helsingor-billetter/pnl/203,12.61412,56.03777
Mejrup Kultur- og Fritidscenter,Holstebro,7500,Elkjærvej 26,https://www.ticketmaster.dk/venue/mejrup-kultur-og-fritidscenter-holstebro-billetter/mef/203,8.68913,56.36267
Ukendt,Aalborg,9000,SE AALBORGOPERA.DK 1. JUNI,https://www.ticketmaster.dk/venue/ukendt-aalborg-billetter/uke/316,9.93431,57.04793
På Plænen,Gilleleje,3250,Bøgebakken 19,https://www.ticketmaster.dk/venue/pa-plaenen-gilleleje-billetter/plg/203,12.30116,56.12509
"Showteltet, v. Bilka Tilst",Aarhus C,8000,NA,http://www.ticketmaster.dk/venue/showteltet-v-bilka-tilst-aarhus-c-billetter/fl7/203,10.10485,56.18241
Billund Centret,Billund,7190,Hans Jensensvej 6,https://www.ticketmaster.dk/venue/billund-centret-billund-billetter/bce/203,9.11809,55.73066
Eataly Denmark,København K,1100,Østergade 52,https://www.ticketmaster.dk/venue/eataly-denmark-kobenhavn-k-billetter/eat/203,12.58022,55.67945
v/Espergærde-Hallen,Espergærde,3060,Idrætsvej,https://www.ticketmaster.dk/venue/v-espergaerde-hallen-espergaerde-billetter/a142/203,12.5436,55.98882
Givskud Hallen,Give,7323,"Løveparkvej 2 A, Givskud",https://www.ticketmaster.dk/venue/givskud-hallen-give-billetter/gih/203,9.34903,55.81355
Aggersundbroen,Løgstør,9670,Fjerritslevvej 3,https://www.ticketmaster.dk/venue/aggersundbroen-logstor-billetter/asb/203,9.29393,56.99952
Hal E - MCH Messecenter Herning,Herning,7400,Vardevej,https://www.ticketmaster.dk/venue/hal-e-mch-messecenter-herning-herning-billetter/hee/214,8.95159,56.1215
Nørremarkskirken,Vejle,7100,Moldevej 1,https://www.ticketmaster.dk/venue/norremarkskirken-vejle-billetter/nmi/203,9.55837,55.71861
Posten,Odense C,5000,Østre Stationsvej 35,https://www.ticketmaster.dk/venue/posten-odense-c-billetter/pos/259,10.38393,55.40087
Rønne Kirke,Rønne,3700,Kirkepladsen 20,https://www.ticketmaster.dk/venue/ronne-kirke-ronne-billetter/rnk/203,14.69763,55.09899
Spillestedet Thy,Thisted,7700,Plantagevej 18,http://www.ticketmaster.dk/venue/spillestedet-thy-thisted-billetter/spy/203,8.69075,56.95651
Valdemars Slot - Teltet,Svendborg,5700,Slotsalléen 100,https://www.ticketmaster.dk/venue/valdemars-slot-teltet-svendborg-billetter/vs1/311,10.65324,55.02237
Festivalscenen.dk,Roslev,7870,Sundhøj 20A,https://www.ticketmaster.dk/venue/festivalscenendk-roslev-billetter/fsd/203,8.86833,56.74193
Ravelinen,København K,1400,Torvegade 79,https://www.ticketmaster.dk/venue/ravelinen-kobenhavn-k-billetter/ravl/303,12.59562,55.67025
ANEXET ved Lundsgaard Goods,Kerteminde,5300,Lundsgårdsvej 15,https://www.ticketmaster.dk/venue/anexet-ved-lundsgaard-goods-kerteminde-billetter/ane/311,10.675230000000001,55.43987
SUNDskolen,Nykøbing F,4800,Linde Alle 36,https://www.ticketmaster.dk/venue/sundskolen-nykobing-f-billetter/a141/203,11.841,54.77627
Kanondalen,Rønne,3700,NA,http://www.ticketmaster.dk/venue/kanondalen-ronne-billetter/a137/203,14.70084,55.0925
Overfor Pastariet,Svaneke,3740,Aarskalevej 81,https://www.ticketmaster.dk/venue/overfor-pastariet-svaneke-billetter/a139/203,15.14734,55.13193
Sostrup Slot & Kloster,Grenaa,8500,"Maria Hjerte Engen 2, Gjerrild",https://www.ticketmaster.dk/venue/sostrup-slot--kloster-grenaa-billetter/soy/203,10.82376,56.49607
Allinge - Stadionvej,Allinge,3770,Stadionvej,https://www.ticketmaster.dk/venue/allinge-stadionvej-allinge-billetter/a138/203,14.79264,55.27956
Boholte Kirke,Køge,4600,Boholtevej 97,https://www.ticketmaster.dk/venue/boholte-kirke-koge-billetter/bok/314,12.16589,55.44388
Kulturværftet - Havnefronten,Helsingør,3000,Allegade 2,https://www.ticketmaster.dk/venue/kulturvaerftet-havnefronten-helsingor-billetter/hfn/203,12.61412,56.03777
B1909,Odense NØ,5240,Gillestedvej 12,https://www.ticketmaster.dk/venue/b1909-odense-n-billetter/b09/203,10.42804,55.4109
Klub,København K,1361,Linnésgade 25,https://www.ticketmaster.dk/venue/klub-kobenhavn-k-billetter/dix/203,12.57074,55.6843
Kulturhavn Gilleleje på Broen,Gilleleje,3250,Peter Fjelstrups Vej 12,https://www.ticketmaster.dk/venue/kulturhavn-gilleleje-pa-broen-gilleleje-billetter/khg/203,12.30626,56.12449
Asminderød kirke,Fredensborg,3480,Asminderødgade 48,https://www.ticketmaster.dk/venue/asminderod-kirke-fredensborg-billetter/amk/203,12.40898,55.96805
Helgstrand Academy,Vodskov,9310,"Grindstedvej 54, Uggerhalne",https://www.ticketmaster.dk/venue/helgstrand-academy-vodskov-billetter/acy/203,10.06172,57.13589
Hellerup Klub,Hellerup,2900,Strandvejen 203,https://www.ticketmaster.dk/venue/hellerup-klub-hellerup-billetter/hpk/203,12.57489,55.73733
Gråsten Slotskirke,Gråsten,6300,Slotsbakken,https://www.ticketmaster.dk/venue/grasten-slotskirke-grasten-billetter/gst/203,9.60089,54.92779
Thyregod Kirke,Give,7323,"Grundtvigs Plads 2, Thyregod",https://www.ticketmaster.dk/venue/thyregod-kirke-give-billetter/tye/203,9.25855,55.90782
P3 (P-Vest),Horsens,8700,"Dyreskuepladsen, Hattingvej 6,",https://www.ticketmaster.dk/venue/p3-p-vest--horsens-billetter/p3v/320,9.82285,55.86195
Bregnet Kirke,Rønde,8410,Kirkebakken 2,https://www.ticketmaster.dk/venue/bregnet-kirke-ronde-billetter/bgr/203,10.4861,56.29103
Fredens Kirke,Svendborg,5700,Glarmestervej 8,https://www.ticketmaster.dk/venue/fredens-kirke-svendborg-billetter/fdr/203,10.62935,55.06524
B&W Hallerne,København K,1432,Refshalevej 177,https://www.ticketmaster.dk/venue/bw-hallerne-kobenhavn-k-billetter/bwh/203,12.6154,55.69234
Det Grønne Museum,Auning,8963,"Randersvej 4, Gl. Estrup",https://www.ticketmaster.dk/venue/det-gronne-museum-auning-billetter/dgm/203,10.342,56.43829
Parken ved Resenlund,Skive,7800,Strandvejen,https://www.ticketmaster.dk/venue/parken-ved-resenlund-skive-billetter/pvr/203,9.051,56.57503
Multikulturhus,Sønderborg,6400,Sønder Havnegade 66,https://www.ticketmaster.dk/venue/multikulturhus-sonderborg-billetter/mkh/223,9.78574,54.91011
First Hotel,Aalborg,9000,Rendsburggade 5,https://www.ticketmaster.dk/venue/first-hotel-aalborg-billetter/fhb/316,9.92792,57.04846
Sønderborg Slot,Sønderborg,6400,Sønderbro 1,https://www.ticketmaster.dk/venue/sonderborg-slot-sonderborg-billetter/btl/277,9.93119,57.04212
Radar,Aarhus C,8000,Skovgaardsgade 3,https://www.ticketmaster.dk/venue/radar-aarhus-c-billetter/raa/203,10.195,56.15406
Campus Carlsberg Festival,København V,1799,Humletorvet 3,https://www.ticketmaster.dk/venue/campus-carlsberg-festival-kobenhavn-v-billetter/ccf/203,12.53616,55.66443
KUNSTEN - Museum of Modern Art,Aalborg,9000,Kong Christians Allé 50,https://www.ticketmaster.dk/venue/kunsten-museum-of-modern-art-aalborg-billetter/nkm/316,9.90602,57.0469
B. Frems Stadion,Sakskøbing,4990,Stadionvej 1,https://www.ticketmaster.dk/venue/b-frems-stadion-sakskobing-billetter/bfss/203,11.64437,54.79393
Hillerslev Kirke,Thisted,7700,Hillerslev Kærvej 1,https://www.ticketmaster.dk/venue/hillerslev-kirke-thisted-billetter/hill/203,8.72997,57.01255
Gråkjær Arena,Holstebro,7500,Hostrupvej 27,https://www.ticketmaster.dk/venue/grakjaer-arena-holstebro-billetter/gan/203,8.62255,56.37202
Nykøbing Sj. Kirke,Nykøbing Sj,4500,Holtets plads 4,https://www.ticketmaster.dk/venue/nykobing-sj-kirke-nykobing-sj-billetter/nir/203,11.67108,55.92487
Aller Kirke,Christiansfeld,6070,Kær Møllevej 17,https://www.ticketmaster.dk/venue/aller-kirke-christiansfeld-billetter/alr/203,9.53161,55.36149
Sydbank Arena - HAL 2,Kolding,6000,Ambolten 2-6,https://www.ticketmaster.dk/venue/sydbank-arena-hal-2-kolding-billetter/kohh/230,9.47621,55.46503
Vestpark Festival,Langå,8870,Parkvej,https://www.ticketmaster.dk/venue/vestpark-festival-langa-billetter/vpf/203,9.88944,56.38682
"ODEON, Nedre Foyer",Odense C,5000,Odeons Kvarter 1,https://www.ticketmaster.dk/venue/odeon-nedre-foyer-odense-c-billetter/onf/313,10.39285,55.39828
Crowne Plaza - Storm,København S,2300,Ørestads Boulevard 114 - 118,https://www.ticketmaster.dk/venue/crowne-plaza-storm-kobenhavn-s-billetter/cst/203,12.57809,55.62688
Herning Valgmenigheds kirke,Herning,7400,H C Ørsteds Vej 27,https://www.ticketmaster.dk/venue/herning-valgmenigheds-kirke-herning-billetter/hvm/214,8.98125,56.1398
Crowne Plaza - BARK,København S,2300,Ørestads Boulevard 114 - 118,https://www.ticketmaster.dk/venue/crowne-plaza-bark-kobenhavn-s-billetter/cpb/203,12.57809,55.62688
Gjellerup Kirke,Herning,7400,"Kirkebyvej 15, Gjellerup",https://www.ticketmaster.dk/venue/gjellerup-kirke-herning-billetter/gjk/214,9.04637,56.14548
Dome Of Visions,Aarhus C,8000,Inge Lehmanns Gade,https://www.ticketmaster.dk/venue/dome-of-visions-aarhus-c-billetter/dome/300,10.21691,56.15985
"Koncerten, Ollerup Efterskole",Vester Skerninge,5762,Svendborgvej 10,https://www.ticketmaster.dk/venue/koncerten-ollerup-efterskole-vester-skerninge-billetter/oef/203,10.51523,55.07155
ODEON - Foyer,Odense C,5000,Odeons Kvarter 1,https://www.ticketmaster.dk/venue/odeon-foyer-odense-c-billetter/ofo/313,10.3985,55.39828
"Canal Tours, Kanalrundfarten",København K,1061,Ved Stranden 26,https://www.ticketmaster.dk/venue/canal-tours-kanalrundfarten-kobenhavn-k-billetter/cto/203,12.58044,55.67769
Copenhagen Economics,København K,1411,"Langebrogade 1,",https://www.ticketmaster.dk/venue/copenhagen-economics-kobenhavn-k-billetter/eco/203,12.58313,55.67133
Anne Justs Have i Hune,Blokhus,9492,"Postbakken 2, Hune",https://www.ticketmaster.dk/venue/anne-justs-have-i-hune-blokhus-billetter/ajh/203,9.61637,57.24696
Christianskirken,Aarhus N,8200,Frederikshaldsgade 15,https://www.ticketmaster.dk/venue/christianskirken-aarhus-n-billetter/cnk/300,10.19573,56.17764
Grønvangsskolen,Vejen,6600,Jacob Gades Alle 16,https://www.ticketmaster.dk/venue/gronvangsskolen-vejen-billetter/grn/286,9.1258,55.47405
Vejen Køreskole,Vejen,6600,Søndergade 24,https://www.ticketmaster.dk/venue/vejen-koreskole-vejen-billetter/vvv/203,9.1367,55.4735
URT Huset,Thisted,7700,Plantagevej 18,https://www.ticketmaster.dk/venue/urt-huset-thisted-billetter/urt/203,8.69075,56.95651
Victoriateatret,Sorø,4180,Storgade 15,https://www.ticketmaster.dk/venue/victoriateatret-soro-billetter/vtt/203,11.55639,55.43314
Residens Møen,Stege,4780,Langelinie 44,https://www.ticketmaster.dk/venue/residens-moen-stege-billetter/rmn/203,12.28106,54.98627
Café Social,Odense C,5000,ODEONs Kvarter 1,https://www.ticketmaster.dk/venue/cafe-social-odense-c-billetter/cso/313,10.39255,55.39828
"FÆNGSLET, Prison Ink festival",Horsens,8700,Fussingevej 8,https://www.ticketmaster.dk/venue/fngslet-prison-ink-festival-horsens-billetter/hfa1/320,9.83536,55.87511
Odense Koncerthus - F1,Odense C,5000,Claus Bergs Gade 7,https://www.ticketmaster.dk/venue/odense-koncerthus-f1-odense-c-billetter/of1/313,10.39189,55.39942
Klub 47,København S,2300,Tycho Brahes Alle 37,https://www.ticketmaster.dk/venue/klub-47-kobenhavn-s-billetter/k47/256,12.61432,55.65609
Teaterbygningen,Køge,4600,Bag Haverne 1,https://www.ticketmaster.dk/venue/teaterbygningen-koge-billetter/tek/314,12.18516,55.45544
Sukkerfabrikken,Stege,4780,Klostervej 2B,https://www.ticketmaster.dk/venue/sukkerfabrikken-stege-billetter/sfb/203,12.31744,55.0065
"Store Momme, Pavillonen",Grenaa,8500,Kærvej 11,https://www.ticketmaster.dk/venue/store-momme-pavillonen-grenaa-billetter/psm/310,10.86876,56.41333
Café & Restaurant Siesta Køge,Køge,4600,Rådhusstræde 2 b,https://www.ticketmaster.dk/venue/cafe--restaurant-siesta-koge-koge-billetter/crs/203,12.18515,55.45643
Østre Anlæg,Holbæk,4300,Kasernevej,https://www.ticketmaster.dk/venue/stre-anlaeg-holbaek-billetter/osa/203,11.72647,55.71452
Korsør Madmarked,Korsør,4220,Kirkepladsen 10,https://www.ticketmaster.dk/venue/korsor-madmarked-korsor-billetter/kmd/203,11.13597,55.33059
Rådhus Allé,Assens,5610,NA,https://www.ticketmaster.dk/venue/radhus-alle-assens-billetter/a162/203,9.89465,55.26357
Festpladsen,Vojens,6500,Over Jerstalvej,https://www.ticketmaster.dk/venue/festpladsen-vojens-billetter/a159/203,9.29485,55.2401
Cirkuspladsen,Tommerup,5690,v. Ellehaven,https://www.ticketmaster.dk/venue/cirkuspladsen-tommerup-billetter/a161/203,10.21359,55.31174
Svanemølleparken,Svenstrup J,9230,NA,https://www.ticketmaster.dk/venue/svanemolleparken-svenstrup-j-billetter/a158/203,9.84756,56.97224
Cirkuspladsen,Vamdrup,6580,Røddingvej/Højvang Nord,https://www.ticketmaster.dk/venue/cirkuspladsen-vamdrup-billetter/a160/203,9.25532,55.43216
Valhal,Frederikssund,3600,Kalvøvej 26,https://www.ticketmaster.dk/venue/valhal-frederikssund-billetter/vlh/203,12.05956,55.83068
Botanisk Have,Aarhus C,8000,Peter Holms Vej,https://www.ticketmaster.dk/venue/botanisk-have-aarhus-c-billetter/bth/203,10.1944,56.16082
Odin Teatret,Holstebro,7500,Særkærparken 144,https://www.ticketmaster.dk/venue/odin-teatret-holstebro-billetter/ote/203,8.60671,56.3799
Munke Mose,Odense C,5000,Munke Mose Allé,https://www.ticketmaster.dk/venue/munke-mose-odense-c-billetter/mmo/203,10.38634,55.39127
P-Festival,Nakskov,4900,Søndergade 1,https://www.ticketmaster.dk/venue/p-festival-nakskov-billetter/pfe/203,11.13634,54.83024
Golden Palace Odense,Odense C,5000,Wichmandsgade 10,https://www.ticketmaster.dk/venue/golden-palace-odense-odense-c-billetter/gpo/203,10.37447,55.40208
Savvaerket i Aarhus,Højbjerg,8270,Søren Nymarksvej 8 A,https://www.ticketmaster.dk/venue/savvaerket-i-aarhus-hojbjerg-billetter/sav/203,12.56834,55.6761
Musikklubben Elværket,Holbæk,4300,Gasværksvej 9,https://www.ticketmaster.dk/venue/musikklubben-elvaerket-holbaek-billetter/mkl/203,11.71224,55.71949
Munkensdam Gymnasium,Kolding,6000,Tøndervej 100,https://www.ticketmaster.dk/venue/munkensdam-gymnasium-kolding-billetter/mug/203,9.45628,55.48552
"Messecenter Vesthimmerland, HAL1",Aars,9600,Messevej 1,https://www.ticketmaster.dk/venue/messecenter-vesthimmerland-hal1-aars-billetter/mvh1/203,9.5023,56.80391
Jungshovedvej,Præstø,4720,NA,https://www.ticketmaster.dk/venue/jungshovedvej-praesto-billetter/a163/203,12.04878,55.09456
Messecenter Vesthimmerland,Aars,9600,Messevej 1,https://www.ticketmaster.dk/venue/messecenter-vesthimmerland-aars-billetter/mvh/203,9.5023,56.80391
Kph Volumen,København SV,2450,Enghavevej 80,https://www.ticketmaster.dk/venue/kph-volumen-kobenhavn-sv-billetter/kvo/203,12.54078,55.66189
HUSET - den tidl. frikirke,Støvring,9530,Hobrovej 108,https://www.ticketmaster.dk/venue/huset-den-tidl-frikirke-stovring-billetter/hho/265,9.8365,56.88637
Kabelhallerne,København K,1432,Refshalevej 325,https://www.ticketmaster.dk/venue/kabelhallerne-kobenhavn-k-billetter/kae/203,12.60996,55.69533
Urhøj camping,Store Fuglede,4480,Urhøjvej 14,https://www.ticketmaster.dk/venue/urhoj-camping-store-fuglede-billetter/urc/203,11.15516,55.57846
Alhedehallerne,Karup J,7470,Trehusevej 7,https://www.ticketmaster.dk/venue/alhedehallerne-karup-j-billetter/ahn/203,9.25556,56.34577
"Speakers Club, Ishøj",Ishøj,2635,Brogrenen 10,https://www.ticketmaster.dk/venue/speakers-club-ishoj-ishoj-billetter/scu/203,12.32847,55.61911
Studenterhus Aarhus,Aarhus C,8000,Nordre Ringgade 3,https://www.ticketmaster.dk/venue/studenterhus-aarhus-aarhus-c-billetter/std/154,10.21333,56.15567
Hessellund Sø Camping,Karup J,7470,Hessellundvej 12,https://www.ticketmaster.dk/venue/hessellund-so-camping-karup-j-billetter/hpi/203,9.11473,56.32339
Studenterhuset,Aalborg,9000,Gammel Torv 10,https://www.ticketmaster.dk/venue/studenterhuset-aalborg-billetter/saa/154,9.91967,57.04832
Taastrup Nykirke,Taastrup,2630,Taastrup Hovedgade 34,https://www.ticketmaster.dk/venue/taastrup-nykirke-taastrup-billetter/tse/203,12.30435,55.65373
"Psyak, Christiania Jazzklub",København K,1440,Christiania,https://www.ticketmaster.dk/venue/psyak-christiania-jazzklub-kobenhavn-k-billetter/pya/203,12.60812,55.67604
Brørup Hallerne,Brørup,6650,Byagervej 3,https://www.ticketmaster.dk/venue/brorup-hallerne-brorup-billetter/bup/286,9.01441,55.48676
Ringriderpladsen,Nordborg,6430,Luffes Plads 3,https://www.ticketmaster.dk/venue/ringriderpladsen-nordborg-billetter/a157/203,9.74685,55.05664
Siimtoften,Ry,8680,"Siimtoften, Overfor Kvickly",https://www.ticketmaster.dk/venue/siimtoften-ry-billetter/a154/203,10.38667,56.41959
Cirkuspladsen,Skærbæk,6780,Industrivej,https://www.ticketmaster.dk/venue/cirkuspladsen-skaerbaek-billetter/a156/203,8.77533,55.15862
Festpladsen,Auning,8963,Sdr. Fælledvej,https://www.ticketmaster.dk/venue/festpladsen-auning-billetter/a153/203,10.38667,56.41959
Kærligheden,Skanderborg,8660,Horsensvej 18,https://www.ticketmaster.dk/venue/kaerligheden-skanderborg-billetter/a155/203,9.88344,56.02585
MiL Ren & Rolig camping,Tisvildeleje,3220,"Tisvilde Idrætshus, Tisvilde Bygade 35",https://www.ticketmaster.dk/venue/mil-ren--rolig-camping-tisvildeleje-billetter/lca/203,12.09222,56.05679
Aggersvold Gods,Jyderup,4450,Tornbrinken 24,https://www.ticketmaster.dk/venue/aggersvold-gods-jyderup-billetter/agg/203,11.42687,55.68919
Sankt Helene Feriecenter,Tisvildeleje,3220,Bygmarken 30,https://www.ticketmaster.dk/venue/sankt-helene-feriecenter-tisvildeleje-billetter/hfc/203,12.09131,56.06201
Frederiksværkhallen,Frederiksværk,3300,"Sportsvej 5,",https://www.ticketmaster.dk/venue/frederiksvaerkhallen-frederiksvaerk-billetter/fvh/203,12.029,55.96208
Østerby Hallen,Læsø,9940,Gammel Havnevej 8,https://www.ticketmaster.dk/venue/sterby-hallen-laeso-billetter/orh/203,11.13193,57.3093
Davinde Kirke,Odense SØ,5220,Davinde Bygade 24,https://www.ticketmaster.dk/venue/davinde-kirke-odense-s-billetter/dav/203,10.54112,55.3392
Café Klubånd,Malling,8340,Bredgade 5,https://www.ticketmaster.dk/venue/cafe-kluband-malling-billetter/cka/203,10.199,56.04837
Carls Hallen - Carlsberg Camping,Svendborg,5700,Sundbrovej 19 - Tåsinge,https://www.ticketmaster.dk/venue/carls-hallen-carlsberg-camping-svendborg-billetter/chc/203,10.61839,55.03252
Skjoldhøj Kirke,Brabrand,8220,Jernaldervej 425,https://www.ticketmaster.dk/venue/skjoldhoj-kirke-brabrand-billetter/sjd/203,10.12209,56.17403
Restaurant Glashuset,Ikast,7430,Østergade 1A,https://www.ticketmaster.dk/venue/restaurant-glashuset-ikast-billetter/rgl/203,9.15574,56.13961
Bogense Hallerne,Bogense,5400,Kristianslundsvej 2,https://www.ticketmaster.dk/venue/bogense-hallerne-bogense-billetter/bh1/203,10.09872,55.56211
Hårlev Kirke,Hårlev,4650,Hårlev Kirkevej 1 A,https://www.ticketmaster.dk/venue/harlev-kirke-harlev-billetter/hvv/203,12.24051,55.34847
ElevAkademiet,Aarhus C,8000,"Ceresbyen 24, Bygning E0, lokaler 01-06",https://www.ticketmaster.dk/venue/elevakademiet-aarhus-c-billetter/ele/203,10.19083,56.15594
BOOA,Bedsted Thy,7755,Vestervigvej 112,https://www.ticketmaster.dk/venue/booa-bedsted-thy-billetter/bod/203,8.41185,56.80963
Mærsk McKinney Møller,Sorø,4180,Akademigrunden,https://www.ticketmaster.dk/venue/maersk-mckinney-moller-soro-billetter/mml/203,11.55585,55.43048
Struer Energi Park,Struer,7600,Park Alle 4,https://www.ticketmaster.dk/venue/struer-energi-park-struer-billetter/sep/203,8.57357,56.48829
Sindal Bykirke,Sindal,9870,Nørregade 48,https://www.ticketmaster.dk/venue/sindal-bykirke-sindal-billetter/sdb/203,10.2022,57.47478
Villa Kultur,København Ø,2100,Krausesvej 3,https://www.ticketmaster.dk/venue/villa-kultur-kobenhavn--billetter/viu/203,12.58173,55.70482
Uggerby Kirke,Hjørring,9800,Uggerhøjvej 24,https://www.ticketmaster.dk/venue/uggerby-kirke-hjorring-billetter/ugg/203,10.10636,57.56658
Racing Arena Aalborg,Aalborg,9000,Skydebanevej 25,https://www.ticketmaster.dk/venue/racing-arena-aalborg-aalborg-billetter/rac/203,9.8765,57.05324
Brundlund Slot,Aabenraa,6200,Brundlund Slot 1,https://www.ticketmaster.dk/venue/brundlund-slot-aabenraa-billetter/bls/203,9.414,55.03934
Viborg Musiksal,Viborg,8800,Gravene 25,https://www.ticketmaster.dk/venue/viborg-musiksal-viborg-billetter/vgm/203,9.40664,56.45125
Medius Holsted,Holsted,6670,Højmarksvej 18,https://www.ticketmaster.dk/venue/medius-holsted-holsted-billetter/miu/203,8.91387,55.49923
Københavns Professionshøjskole,København N,2200,Sigurdsgade 26,https://www.ticketmaster.dk/venue/kobenhavns-professionshojskole-kobenhavn-n-billetter/kpr/203,12.55531,55.70276
Rønde,Rønde,8410,NA,https://www.ticketmaster.dk/venue/ronde-ronde-billetter/a164/203,10.51188,56.30439
Food Studio,København S,2300,Amager Strandvej 18,https://www.ticketmaster.dk/venue/food-studio-kobenhavn-s-billetter/foo/203,12.62562,55.66839
UCC Hallen,Skovlunde,2740,Ejbyvej 47,https://www.ticketmaster.dk/venue/ucc-hallen-skovlunde-billetter/ucc/203,12.39968,55.71538
Kurhotel Skodsborg,Skodsborg,2942,Skodsborg Strandvej 139,https://www.ticketmaster.dk/venue/kurhotel-skodsborg-skodsborg-billetter/ksd/203,12.57417,55.81965
Fraugde Kirke,Odense SØ,5220,Fraugdevej 67,https://www.ticketmaster.dk/venue/fraugde-kirke-odense-s-billetter/fgk/203,10.48775,55.35421
Fjerritslev Skole,Fjerritslev,9690,Borups Alle 8,https://www.ticketmaster.dk/venue/fjerritslev-skole-fjerritslev-billetter/fjo/203,9.26365,57.08969
Cafe Utopia,Holstebro,7500,Danmarksgade 3,https://www.ticketmaster.dk/venue/cafe-utopia-holstebro-billetter/cut/203,8.6189,56.36028
Mærsk Tårnet - Kbhs Universitet,København N,2200,Blegdamsvej 3B,https://www.ticketmaster.dk/venue/maersk-tarnet-kbhs-universitet-kobenhavn-n-billetter/mtn/203,12.56142,55.69349
"Insero Atrium, Forum Horsens",Horsens,8700,Langmarksvej 53,https://www.ticketmaster.dk/venue/insero-atrium-forum-horsens-horsens-billetter/ina/320,9.8557,55.8716
Cafe Himmelblå,Væggerløse,4873,Marielyst Strandvej 50,https://www.ticketmaster.dk/venue/cafe-himmelbla-vaeggerlose-billetter/hbl/203,11.96398,54.69151
Tarm Idrætscenter,Tarm,6880,Skovvej 25,https://www.ticketmaster.dk/venue/tarm-idraetscenter-tarm-billetter/tad/203,8.53076,55.90415
Café & Restaurant Siesta,Køge,4600,Rådhusstræde 2 b,https://www.ticketmaster.dk/venue/cafe--restaurant-siesta-koge-billetter/crs/314,12.18515,55.45643
Salten Marked,Them,8653,Frisholmvej 3A,https://www.ticketmaster.dk/venue/salten-marked-them-billetter/mkd/203,9.56723,56.08208
Nærum Kirke,Nærum,2850,Kirkeåsen 10,https://www.ticketmaster.dk/venue/naerum-kirke-naerum-billetter/nur/203,12.5363,55.8214
Svogerslev Kirke,Roskilde,4000,Nordgaardsvej 4,https://www.ticketmaster.dk/venue/svogerslev-kirke-roskilde-billetter/slv/203,12.0149,55.63566
Thisted Gymnasium,Thisted,7700,Ringvej 32,https://www.ticketmaster.dk/venue/thisted-gymnasium-thisted-billetter/tyg/203,8.69878,56.96612
Ingstrup Kirke,Løkken,9480,Gl. Ingstrupvej 19,https://www.ticketmaster.dk/venue/ingstrup-kirke-lokken-billetter/ink/203,9.72443,57.31223
Faaborg Museum,Faaborg,5600,Grønnegade 75,https://www.ticketmaster.dk/venue/faaborg-museum-faaborg-billetter/fmu/203,10.2469,55.09458
Musikteatret Holstebro,Holstebro,7500,Den Røde Plads 16,https://www.ticketmaster.dk/venue/musikteatret-holstebro-holstebro-billetter/mth/194,8.61632,56.35659
Stigsborg Brygge,Nørresundby,9400,NA,https://www.ticketmaster.dk/venue/stigsborg-brygge-norresundby-billetter/sye/203,9.93642,57.05523
Musikstalden,Næstved,4700,Grønnegade 10,https://www.ticketmaster.dk/venue/musikstalden-naestved-billetter/msd/203,11.7611,55.23193
Sct. Jørgens Kirke,Næstved,4700,Parkvej 101,https://www.ticketmaster.dk/venue/sct-jorgens-kirke-naestved-billetter/sao/203,NA,NA
Lalandia,Billund,7190,Bellehammers Allé 3,https://www.ticketmaster.dk/venue/lalandia-billund-billetter/lll/203,12.56834,55.6761
Ølgod,Klampenborg,2930,Dyrehavsbakken telt 2,https://www.ticketmaster.dk/venue/lgod-klampenborg-billetter/ogd/203,12.57777,55.77522
"235, Bistro & Natklub",Charlottenlund,2920,Strandvejen 235,https://www.ticketmaster.dk/venue/235-bistro--natklub-charlottenlund-billetter/235/203,12.58639,55.74936
Fænø-Sund Konference,Middelfart,5500,Oddevejen 8,https://www.ticketmaster.dk/venue/faeno-sund-konference-middelfart-billetter/fsu/203,10.00644,55.89425
Kulturmaskinen,Odense C,5000,Farvergården 7,https://www.ticketmaster.dk/venue/kulturmaskinen-odense-c-billetter/ktm/203,10.3811,55.3948
Tjili Pop,København N,2200,Rantzausgade 28,https://www.ticketmaster.dk/venue/tjili-pop-kobenhavn-n-billetter/tjp/203,12.55011,55.68633
Bloody Milk,Aalborg,9000,Kayerødsgade 10,https://www.ticketmaster.dk/venue/bloody-milk-aalborg-billetter/blm/203,9.92468,57.04472
Surprise - check Facebook!,København N,2200,"Exciting, right?",https://www.ticketmaster.dk/venue/surprise-check-facebook-kobenhavn-n-billetter/rfd/203,12.55425,55.69912
Kærvej/Grønningen,Billund,7190,NA,https://www.ticketmaster.dk/venue/kaervej-gronningen-billund-billetter/a132/203,9.11398,55.72361
ODEON - Øverste Foyer,Odense C,5000,Odeons Kvarter 1,https://www.ticketmaster.dk/venue/odeon-verste-foyer-odense-c-billetter/ooe/313,10.39285,55.39828
"Lunden, Horsens, FriluftsScenen",Horsens,8700,Sundvej 1A,https://www.ticketmaster.dk/venue/lunden-horsens-friluftsscenen-horsens-billetter/luh/320,9.86318,55.8632
Cirkuspladsen,Thyholm,7790,Østergade 24,https://www.ticketmaster.dk/venue/cirkuspladsen-thyholm-billetter/a131/203,8.53263,56.64835
Sundfarten M/S Helge,Svendborg,5700,Jessens Mole 6,https://www.ticketmaster.dk/venue/sundfarten-m-s-helge-svendborg-billetter/sfg/311,10.61413,55.05991
Ved Christmas Møllers Vej,Odense V,5200,Christmas Møllers Vej,https://www.ticketmaster.dk/venue/ved-christmas-mollers-vej-odense-v-billetter/a134/203,10.35414,55.39524
Nakskov Teater,Nakskov,4900,Søvej 8,https://www.ticketmaster.dk/venue/nakskov-teater-nakskov-billetter/nts/154,11.13813,54.83545
Ved Søndre Boulevard,Grindsted,7200,Søndre Boulevard,https://www.ticketmaster.dk/venue/ved-sondre-boulevard-grindsted-billetter/a133/203,8.91573,55.75024
Ved Havnen,Svendborg,5700,NA,https://www.ticketmaster.dk/venue/ved-havnen-svendborg-billetter/a135/203,10.61469,55.05795
Bork Hallen,Hemmet,6893,"Midtbyvej 32, Nr. Bork",https://www.ticketmaster.dk/venue/bork-hallen-hemmet-billetter/boa/203,8.31907,55.83661
Ungdomshuset Konfus,Esbjerg,6700,Gasværksgade 2,https://www.ticketmaster.dk/venue/ungdomshuset-konfus-esbjerg-billetter/kfs/203,8.45961,55.46477
Royal Taj Mahal,Taastrup,2630,Rugkærgårdsvej 60,https://www.ticketmaster.dk/venue/royal-taj-mahal-taastrup-billetter/rtm/203,12.30793,55.64207
Scandic Hotel,København V,1601,Vester Søgade 8,https://www.ticketmaster.dk/venue/scandic-hotel-kobenhavn-v-billetter/scj/203,12.55925,55.6751
Kongekilden,Klampenborg,2930,Enghavevej 8,https://www.ticketmaster.dk/venue/kongekilden-klampenborg-billetter/rkk/203,12.56032,55.77218
Tribeca,København NV,2400,Bygmestervej 2,https://www.ticketmaster.dk/venue/tribeca-kobenhavn-nv-billetter/trib/203,12.53459,55.70621
Kulturværftet - Store Scene,Helsingør,3000,Allegade 2,https://www.ticketmaster.dk/venue/kulturvaerftet-store-scene-helsingor-billetter/kfv/203,12.61412,56.03777
BYGMA Loungen på Ceres Park,Aarhus C,8000,Stadion Allé 70,https://www.ticketmaster.dk/venue/bygma-loungen-pa-ceres-park-aarhus-c-billetter/lcp/230,10.19364,56.13221
Filmtorvet,Holbæk,4300,Parallelvej 35,https://www.ticketmaster.dk/venue/filmtorvet-holbaek-billetter/flt/203,11.72203,55.71946
